uuid,spot_number,shot_number,shots_in_spot,image_filename,image_width,image_height,image_quality,capture_datetime,latitude,longitude,altitude_m,altitude_accuracy_m,gps_accuracy_m,gps_reading_count,camera_pitch,camera_roll,camera_heading,municipality,barangay,farm_name,crops,temperature_c,humidity_percent,notes,device_id,capture_mode
fd1cb8e3,3,1,10,images/2026/01/21/latrinidad_balili_bsuback_20260121_003420_fd1cb8e3.jpg,1080,1080,1080p,2026-01-21T00:34:20.370Z,16.453938,120.591540,1365,19,3.4,1,28,7,81,La Trinidad,Balili,BSU Back,"cabbage,custom_chinese",16.9,79,,realme_RMX3840_0FE2DF,field
0dc8cdd8,3,2,10,images/2026/01/21/latrinidad_balili_bsuback_20260121_003425_0dc8cdd8.jpg,1080,1080,1080p,2026-01-21T00:34:25.473Z,16.453938,120.591540,1365,19,3.4,1,28,9,46,La Trinidad,Balili,BSU Back,"cabbage,custom_chinese",16.9,79,,realme_RMX3840_0FE2DF,field
f1609858,3,3,10,images/2026/01/21/latrinidad_balili_bsuback_20260121_003433_f1609858.jpg,1080,1080,1080p,2026-01-21T00:34:33.538Z,16.453938,120.591540,1365,19,3.4,1,28,-3,130,La Trinidad,Balili,BSU Back,"cabbage,custom_chinese",16.9,79,,realme_RMX3840_0FE2DF,field
2fc5eae0,3,4,10,images/2026/01/21/latrinidad_balili_bsuback_20260121_003437_2fc5eae0.jpg,1080,1080,1080p,2026-01-21T00:34:37.433Z,16.453938,120.591540,1365,19,3.4,1,29,-4,131,La Trinidad,Balili,BSU Back,"cabbage,custom_chinese",16.9,79,,realme_RMX3840_0FE2DF,field
7ab9485a,3,5,10,images/2026/01/21/latrinidad_balili_bsuback_20260121_003450_7ab9485a.jpg,1080,1080,1080p,2026-01-21T00:34:50.250Z,16.453938,120.591540,1365,19,3.4,1,18,-4,303,La Trinidad,Balili,BSU Back,"cabbage,custom_chinese",16.9,79,,realme_RMX3840_0FE2DF,field
2af289f7,3,6,10,images/2026/01/21/latrinidad_balili_bsuback_20260121_003453_2af289f7.jpg,1080,1080,1080p,2026-01-21T00:34:53.876Z,16.453938,120.591540,1365,19,3.4,1,21,-2,302,La Trinidad,Balili,BSU Back,"cabbage,custom_chinese",16.9,79,,realme_RMX3840_0FE2DF,field
0458bc74,3,7,10,images/2026/01/21/latrinidad_balili_bsuback_20260121_003503_0458bc74.jpg,1080,1080,1080p,2026-01-21T00:35:03.376Z,16.453951,120.591527,1363,10,3.2,1,25,4,221,La Trinidad,Balili,BSU Back,"cabbage,custom_chinese",16.9,79,,realme_RMX3840_0FE2DF,field
c4cd83c4,3,8,10,images/2026/01/21/latrinidad_balili_bsuback_20260121_003507_c4cd83c4.jpg,1080,1080,1080p,2026-01-21T00:35:07.295Z,16.453951,120.591527,1363,10,3.2,1,25,4,221,La Trinidad,Balili,BSU Back,"cabbage,custom_chinese",16.9,79,,realme_RMX3840_0FE2DF,field
df2f7e59,3,9,10,images/2026/01/21/latrinidad_balili_bsuback_20260121_003514_df2f7e59.jpg,1080,1080,1080p,2026-01-21T00:35:14.287Z,16.453951,120.591527,1363,10,3.2,1,6,20,298,La Trinidad,Balili,BSU Back,"cabbage,custom_chinese",16.9,79,,realme_RMX3840_0FE2DF,field
353c9f8e,3,10,10,images/2026/01/21/latrinidad_balili_bsuback_20260121_003531_353c9f8e.jpg,1080,1080,1080p,2026-01-21T00:35:31.482Z,16.453951,120.591527,1363,10,3.2,1,37,6,294,La Trinidad,Balili,BSU Back,"cabbage,custom_chinese",16.9,79,,realme_RMX3840_0FE2DF,field
9204a9b8,5,1,10,images/2026/01/21/latrinidad_balili_bsuback_20260121_004129_9204a9b8.jpg,1080,1080,1080p,2026-01-21T00:41:29.043Z,16.453960,120.591679,1360,10,3.7,1,6,0,175,La Trinidad,Balili,BSU Back,"cabbage,custom_chinese",18.0,71,,realme_RMX3840_0FE2DF,field
020ef6fd,5,3,10,images/2026/01/21/latrinidad_balili_bsuback_20260121_004140_020ef6fd.jpg,1080,1080,1080p,2026-01-21T00:41:40.865Z,16.453960,120.591679,1360,10,3.7,1,14,-1,121,La Trinidad,Balili,BSU Back,"cabbage,custom_chinese",18.0,71,,realme_RMX3840_0FE2DF,field
082546ed,5,5,10,images/2026/01/21/latrinidad_balili_bsuback_20260121_004152_082546ed.jpg,1080,1080,1080p,2026-01-21T00:41:52.818Z,16.453946,120.591665,1359,5,3.6,1,24,-2,0,La Trinidad,Balili,BSU Back,"cabbage,custom_chinese",18.0,71,,realme_RMX3840_0FE2DF,field
fa7addeb,5,7,10,images/2026/01/21/latrinidad_balili_bsuback_20260121_004202_fa7addeb.jpg,1080,1080,1080p,2026-01-21T00:42:02.595Z,16.453938,120.591647,1358,6,3.4,1,20,6,250,La Trinidad,Balili,BSU Back,"cabbage,custom_chinese",18.0,71,,realme_RMX3840_0FE2DF,field
4d98bc98,5,8,10,images/2026/01/21/latrinidad_balili_bsuback_20260121_004205_4d98bc98.jpg,1080,1080,1080p,2026-01-21T00:42:05.813Z,16.453938,120.591647,1358,6,3.4,1,21,6,250,La Trinidad,Balili,BSU Back,"cabbage,custom_chinese",18.0,71,,realme_RMX3840_0FE2DF,field
f01ef4c7,6,1,10,images/2026/01/21/latrinidad_balili_bsuback_20260121_004412_f01ef4c7.jpg,1080,1080,1080p,2026-01-21T00:44:12.092Z,16.453841,120.591565,1360,3,3.1,1,26,1,78,La Trinidad,Balili,BSU Back,potato,18.0,71,,realme_RMX3840_0FE2DF,field
4df6a355,6,2,10,images/2026/01/21/latrinidad_balili_bsuback_20260121_004415_4df6a355.jpg,1080,1080,1080p,2026-01-21T00:44:15.285Z,16.453841,120.591565,1360,3,3.1,1,25,-1,80,La Trinidad,Balili,BSU Back,potato,18.0,71,,realme_RMX3840_0FE2DF,field
f039d994,6,3,10,images/2026/01/21/latrinidad_balili_bsuback_20260121_004424_f039d994.jpg,1080,1080,1080p,2026-01-21T00:44:24.676Z,16.453841,120.591565,1360,3,3.1,1,29,1,148,La Trinidad,Balili,BSU Back,potato,18.0,71,,realme_RMX3840_0FE2DF,field
27547ad7,6,4,10,images/2026/01/21/latrinidad_balili_bsuback_20260121_004428_27547ad7.jpg,1080,1080,1080p,2026-01-21T00:44:28.071Z,16.453841,120.591565,1360,3,3.1,1,28,-1,148,La Trinidad,Balili,BSU Back,potato,18.0,71,,realme_RMX3840_0FE2DF,field
2a2e7ac0,6,5,10,images/2026/01/21/latrinidad_balili_bsuback_20260121_004437_2a2e7ac0.jpg,1080,1080,1080p,2026-01-21T00:44:37.605Z,16.453841,120.591565,1360,3,3.1,1,31,-2,248,La Trinidad,Balili,BSU Back,potato,18.0,71,,realme_RMX3840_0FE2DF,field
d476c328,6,6,10,images/2026/01/21/latrinidad_balili_bsuback_20260121_004441_d476c328.jpg,1080,1080,1080p,2026-01-21T00:44:41.054Z,16.453841,120.591565,1360,3,3.1,1,32,-1,248,La Trinidad,Balili,BSU Back,potato,18.0,71,,realme_RMX3840_0FE2DF,field
24fd4136,6,7,10,images/2026/01/21/latrinidad_balili_bsuback_20260121_004449_24fd4136.jpg,1080,1080,1080p,2026-01-21T00:44:49.708Z,16.453841,120.591565,1360,3,3.1,1,34,2,327,La Trinidad,Balili,BSU Back,potato,18.0,71,,realme_RMX3840_0FE2DF,field
23da0fff,6,8,10,images/2026/01/21/latrinidad_balili_bsuback_20260121_004453_23da0fff.jpg,1080,1080,1080p,2026-01-21T00:44:53.045Z,16.453841,120.591565,1360,3,3.1,1,35,2,326,La Trinidad,Balili,BSU Back,potato,18.0,71,,realme_RMX3840_0FE2DF,field
dd052179,6,9,10,images/2026/01/21/latrinidad_balili_bsuback_20260121_004459_dd052179.jpg,1080,1080,1080p,2026-01-21T00:44:59.560Z,16.453841,120.591565,1360,3,3.1,1,-1,1,325,La Trinidad,Balili,BSU Back,potato,18.0,71,,realme_RMX3840_0FE2DF,field
c440348c,6,10,10,images/2026/01/21/latrinidad_balili_bsuback_20260121_004503_c440348c.jpg,1080,1080,1080p,2026-01-21T00:45:03.149Z,16.453841,120.591565,1360,3,3.1,1,0,0,326,La Trinidad,Balili,BSU Back,potato,18.0,71,,realme_RMX3840_0FE2DF,field
3d445d44,10,1,10,images/2026/01/21/latrinidad_balili_bsuback_20260121_004810_3d445d44.jpg,1080,1080,1080p,2026-01-21T00:48:10.605Z,16.453723,120.591581,1363,4,3.8,1,31,5,306,La Trinidad,Balili,BSU Back,potato,18.0,71,,realme_RMX3840_0FE2DF,field
968910da,10,3,10,images/2026/01/21/latrinidad_balili_bsuback_20260121_004822_968910da.jpg,1080,1080,1080p,2026-01-21T00:48:22.979Z,16.453723,120.591581,1363,4,3.8,1,45,-1,37,La Trinidad,Balili,BSU Back,potato,18.0,71,,realme_RMX3840_0FE2DF,field
95d08c79,10,5,10,images/2026/01/21/latrinidad_balili_bsuback_20260121_004835_95d08c79.jpg,1080,1080,1080p,2026-01-21T00:48:35.485Z,16.453723,120.591581,1363,4,3.8,1,36,-5,134,La Trinidad,Balili,BSU Back,potato,18.0,71,,realme_RMX3840_0FE2DF,field
0b21c051,10,7,10,images/2026/01/21/latrinidad_balili_bsuback_20260121_004847_0b21c051.jpg,1080,1080,1080p,2026-01-21T00:48:47.119Z,16.453723,120.591581,1363,4,3.8,1,36,1,211,La Trinidad,Balili,BSU Back,potato,18.0,71,,realme_RMX3840_0FE2DF,field
23b4a903,10,9,10,images/2026/01/21/latrinidad_balili_bsuback_20260121_004858_23b4a903.jpg,1080,1080,1080p,2026-01-21T00:48:58.766Z,16.453723,120.591581,1363,4,3.8,1,0,-1,136,La Trinidad,Balili,BSU Back,potato,18.0,71,,realme_RMX3840_0FE2DF,field
9c8d5692,11,1,10,images/2026/01/21/latrinidad_balili_bsuback_20260121_005154_9c8d5692.jpg,1080,1080,1080p,2026-01-21T00:51:54.709Z,16.453653,120.591637,1363,3,3.8,1,10,10,122,La Trinidad,Balili,BSU Back,"lettuce,custom_iceberg",18.0,71,,realme_RMX3840_0FE2DF,field
1b85c11e,11,2,10,images/2026/01/21/latrinidad_balili_bsuback_20260121_005158_1b85c11e.jpg,1080,1080,1080p,2026-01-21T00:51:58.780Z,16.453653,120.591637,1363,3,3.8,1,6,7,122,La Trinidad,Balili,BSU Back,"lettuce,custom_iceberg",18.0,71,,realme_RMX3840_0FE2DF,field
0a345b98,11,5,10,images/2026/01/21/latrinidad_balili_bsuback_20260121_005219_0a345b98.jpg,1080,1080,1080p,2026-01-21T00:52:19.789Z,16.453653,120.591637,1363,3,3.8,1,45,-2,30,La Trinidad,Balili,BSU Back,"lettuce,custom_iceberg",18.0,71,,realme_RMX3840_0FE2DF,field
2f2b6b1a,11,7,10,images/2026/01/21/latrinidad_balili_bsuback_20260121_005231_2f2b6b1a.jpg,1080,1080,1080p,2026-01-21T00:52:31.114Z,16.453653,120.591637,1363,3,3.8,1,37,5,203,La Trinidad,Balili,BSU Back,"lettuce,custom_iceberg",18.0,71,,realme_RMX3840_0FE2DF,field
3ad9bb6f,11,9,10,images/2026/01/21/latrinidad_balili_bsuback_20260121_005240_3ad9bb6f.jpg,1080,1080,1080p,2026-01-21T00:52:40.911Z,16.453653,120.591637,1363,3,3.8,1,37,-4,299,La Trinidad,Balili,BSU Back,"lettuce,custom_iceberg",18.0,71,,realme_RMX3840_0FE2DF,field
9baecef0,13,1,10,images/2026/01/21/latrinidad_balili_bsuback_20260121_005354_9baecef0.jpg,1080,1080,1080p,2026-01-21T00:53:54.919Z,16.453574,120.591503,1363,11,4.2,1,13,0,134,La Trinidad,Balili,BSU Back,"lettuce,custom_iceberg",18.0,71,,realme_RMX3840_0FE2DF,field
5209e81c,13,2,10,images/2026/01/21/latrinidad_balili_bsuback_20260121_005358_5209e81c.jpg,1080,1080,1080p,2026-01-21T00:53:58.222Z,16.453574,120.591503,1363,11,4.2,1,12,2,132,La Trinidad,Balili,BSU Back,"lettuce,custom_iceberg",18.0,71,,realme_RMX3840_0FE2DF,field
85a18149,13,3,10,images/2026/01/21/latrinidad_balili_bsuback_20260121_005402_85a18149.jpg,1080,1080,1080p,2026-01-21T00:54:02.953Z,16.453574,120.591503,1363,11,4.2,1,40,-1,144,La Trinidad,Balili,BSU Back,"lettuce,custom_iceberg",18.0,71,,realme_RMX3840_0FE2DF,field
d0326bb8,13,4,10,images/2026/01/21/latrinidad_balili_bsuback_20260121_005405_d0326bb8.jpg,1080,1080,1080p,2026-01-21T00:54:05.947Z,16.453574,120.591503,1363,11,4.2,1,40,-1,143,La Trinidad,Balili,BSU Back,"lettuce,custom_iceberg",18.0,71,,realme_RMX3840_0FE2DF,field
c3e6f532,13,5,10,images/2026/01/21/latrinidad_balili_bsuback_20260121_005413_c3e6f532.jpg,1080,1080,1080p,2026-01-21T00:54:13.231Z,16.453574,120.591503,1363,11,4.2,1,44,-3,218,La Trinidad,Balili,BSU Back,"lettuce,custom_iceberg",18.0,71,,realme_RMX3840_0FE2DF,field
fa1d2e11,13,6,10,images/2026/01/21/latrinidad_balili_bsuback_20260121_005416_fa1d2e11.jpg,1080,1080,1080p,2026-01-21T00:54:17.006Z,16.453574,120.591503,1363,11,4.2,1,43,-3,219,La Trinidad,Balili,BSU Back,"lettuce,custom_iceberg",18.0,71,,realme_RMX3840_0FE2DF,field
bbbb04a9,13,7,10,images/2026/01/21/latrinidad_balili_bsuback_20260121_005427_bbbb04a9.jpg,1080,1080,1080p,2026-01-21T00:54:27.988Z,16.453574,120.591503,1363,11,4.2,1,45,11,18,La Trinidad,Balili,BSU Back,"lettuce,custom_iceberg",18.0,71,,realme_RMX3840_0FE2DF,field
5fddbd2e,13,8,10,images/2026/01/21/latrinidad_balili_bsuback_20260121_005431_5fddbd2e.jpg,1080,1080,1080p,2026-01-21T00:54:31.899Z,16.453574,120.591503,1363,11,4.2,1,45,13,16,La Trinidad,Balili,BSU Back,"lettuce,custom_iceberg",18.0,71,,realme_RMX3840_0FE2DF,field
4ebe6ece,13,9,10,images/2026/01/21/latrinidad_balili_bsuback_20260121_005440_4ebe6ece.jpg,1080,1080,1080p,2026-01-21T00:54:40.767Z,16.453574,120.591503,1363,11,4.2,1,29,1,299,La Trinidad,Balili,BSU Back,"lettuce,custom_iceberg",18.0,71,,realme_RMX3840_0FE2DF,field
25677ecd,13,10,10,images/2026/01/21/latrinidad_balili_bsuback_20260121_005445_25677ecd.jpg,1080,1080,1080p,2026-01-21T00:54:45.889Z,16.453574,120.591503,1363,11,4.2,1,39,11,296,La Trinidad,Balili,BSU Back,"lettuce,custom_iceberg",18.0,71,,realme_RMX3840_0FE2DF,field
7e979247,14,1,10,images/2026/01/21/latrinidad_balili_bsuback_20260121_005707_7e979247.jpg,1080,1080,1080p,2026-01-21T00:57:07.876Z,16.453532,120.591589,1363,10,3.8,1,29,7,44,La Trinidad,Balili,BSU Back,"lettuce,custom_iceberg",18.0,71,,realme_RMX3840_0FE2DF,field
9df84ddc,14,3,10,images/2026/01/21/latrinidad_balili_bsuback_20260121_005717_9df84ddc.jpg,1080,1080,1080p,2026-01-21T00:57:17.320Z,16.453532,120.591589,1363,10,3.8,1,29,-4,139,La Trinidad,Balili,BSU Back,"lettuce,custom_iceberg",18.0,71,,realme_RMX3840_0FE2DF,field
b28af9a8,14,5,10,images/2026/01/21/latrinidad_balili_bsuback_20260121_005732_b28af9a8.jpg,1080,1080,1080p,2026-01-21T00:57:32.175Z,16.453532,120.591589,1363,10,3.8,1,35,1,315,La Trinidad,Balili,BSU Back,"lettuce,custom_iceberg",18.0,71,,realme_RMX3840_0FE2DF,field
dd166f55,14,7,10,images/2026/01/21/latrinidad_balili_bsuback_20260121_005741_dd166f55.jpg,1080,1080,1080p,2026-01-21T00:57:41.575Z,16.453532,120.591589,1363,10,3.8,1,26,4,218,La Trinidad,Balili,BSU Back,"lettuce,custom_iceberg",18.0,71,,realme_RMX3840_0FE2DF,field
4e0a65e4,14,9,10,images/2026/01/21/latrinidad_balili_bsuback_20260121_005750_4e0a65e4.jpg,1080,1080,1080p,2026-01-21T00:57:50.515Z,16.453532,120.591589,1363,10,3.8,1,6,1,298,La Trinidad,Balili,BSU Back,"lettuce,custom_iceberg",18.0,71,,realme_RMX3840_0FE2DF,field
e504924a,16,1,10,images/2026/01/21/latrinidad_balili_bsuback_20260121_010018_e504924a.jpg,1080,1080,1080p,2026-01-21T01:00:18.275Z,16.453567,120.591683,1363,4,4.7,1,30,4,275,La Trinidad,Balili,BSU Back,cabbage,18.5,67,,realme_RMX3840_0FE2DF,field
5fef9dab,16,2,10,images/2026/01/21/latrinidad_balili_bsuback_20260121_010021_5fef9dab.jpg,1080,1080,1080p,2026-01-21T01:00:21.512Z,16.453567,120.591683,1363,4,4.7,1,31,4,275,La Trinidad,Balili,BSU Back,cabbage,18.5,67,,realme_RMX3840_0FE2DF,field
5da23915,16,3,10,images/2026/01/21/latrinidad_balili_bsuback_20260121_010035_5da23915.jpg,1080,1080,1080p,2026-01-21T01:00:36.045Z,16.453570,120.591703,1371,17,3.6,1,2,2,274,La Trinidad,Balili,BSU Back,cabbage,18.5,67,,realme_RMX3840_0FE2DF,field
85a8dc65,16,4,10,images/2026/01/21/latrinidad_balili_bsuback_20260121_010040_85a8dc65.jpg,1080,1080,1080p,2026-01-21T01:00:40.167Z,16.453570,120.591703,1371,17,3.6,1,2,1,270,La Trinidad,Balili,BSU Back,cabbage,18.5,67,,realme_RMX3840_0FE2DF,field
efa298f2,16,5,10,images/2026/01/21/latrinidad_balili_bsuback_20260121_010102_efa298f2.jpg,1080,1080,1080p,2026-01-21T01:01:02.283Z,16.453570,120.591703,1371,17,3.6,1,38,5,83,La Trinidad,Balili,BSU Back,cabbage,18.5,67,,realme_RMX3840_0FE2DF,field
6a2309a9,16,6,10,images/2026/01/21/latrinidad_balili_bsuback_20260121_010105_6a2309a9.jpg,1080,1080,1080p,2026-01-21T01:01:05.854Z,16.453570,120.591703,1371,17,3.6,1,38,5,82,La Trinidad,Balili,BSU Back,cabbage,18.5,67,,realme_RMX3840_0FE2DF,field
79a4d84c,16,7,10,images/2026/01/21/latrinidad_balili_bsuback_20260121_010115_79a4d84c.jpg,1080,1080,1080p,2026-01-21T01:01:15.880Z,16.453570,120.591703,1371,17,3.6,1,35,-13,173,La Trinidad,Balili,BSU Back,cabbage,18.5,67,,realme_RMX3840_0FE2DF,field
343d669f,16,8,10,images/2026/01/21/latrinidad_balili_bsuback_20260121_010119_343d669f.jpg,1080,1080,1080p,2026-01-21T01:01:19.297Z,16.453570,120.591703,1371,17,3.6,1,35,-13,173,La Trinidad,Balili,BSU Back,cabbage,18.5,67,,realme_RMX3840_0FE2DF,field
0ad87e2c,16,9,10,images/2026/01/21/latrinidad_balili_bsuback_20260121_010128_0ad87e2c.jpg,1080,1080,1080p,2026-01-21T01:01:28.213Z,16.453570,120.591703,1371,17,3.6,1,24,5,61,La Trinidad,Balili,BSU Back,cabbage,18.5,67,,realme_RMX3840_0FE2DF,field
88deef22,16,10,10,images/2026/01/21/latrinidad_balili_bsuback_20260121_010131_88deef22.jpg,1080,1080,1080p,2026-01-21T01:01:31.043Z,16.453570,120.591703,1371,17,3.6,1,24,6,61,La Trinidad,Balili,BSU Back,cabbage,18.5,67,,realme_RMX3840_0FE2DF,field
639f2a32,18,1,10,images/2026/01/21/latrinidad_balili_bsuback_20260121_010601_639f2a32.jpg,1080,1080,1080p,2026-01-21T01:06:01.350Z,16.453661,120.591712,1363,8,3.9,1,32,-5,359,La Trinidad,Balili,BSU Back,cabbage,18.5,67,,realme_RMX3840_0FE2DF,field
72f3cbe1,18,3,10,images/2026/01/21/latrinidad_balili_bsuback_20260121_010619_72f3cbe1.jpg,1080,1080,1080p,2026-01-21T01:06:19.394Z,16.453678,120.591719,1358,2,3.9,1,25,-10,34,La Trinidad,Balili,BSU Back,cabbage,18.5,67,,realme_RMX3840_0FE2DF,field
a9fa4ea1,18,6,10,images/2026/01/21/latrinidad_balili_bsuback_20260121_010630_a9fa4ea1.jpg,1080,1080,1080p,2026-01-21T01:06:30.695Z,16.453678,120.591719,1358,2,3.9,1,4,-18,47,La Trinidad,Balili,BSU Back,cabbage,18.5,67,,realme_RMX3840_0FE2DF,field
c9c03684,18,7,10,images/2026/01/21/latrinidad_balili_bsuback_20260121_010639_c9c03684.jpg,1080,1080,1080p,2026-01-21T01:06:39.772Z,16.453678,120.591719,1358,2,3.9,1,10,9,30,La Trinidad,Balili,BSU Back,cabbage,18.5,67,,realme_RMX3840_0FE2DF,field
8fe759bd,18,10,10,images/2026/01/21/latrinidad_balili_bsuback_20260121_010652_8fe759bd.jpg,1080,1080,1080p,2026-01-21T01:06:52.980Z,16.453678,120.591719,1358,2,3.9,1,38,-8,21,La Trinidad,Balili,BSU Back,cabbage,18.5,67,,realme_RMX3840_0FE2DF,field
d8888a58,21,1,10,images/2026/01/21/latrinidad_balili_bsuback_20260121_011710_d8888a58.jpg,1080,1080,1080p,2026-01-21T01:17:10.630Z,16.453725,120.591791,1358,1,3.5,1,35,0,172,La Trinidad,Balili,BSU Back,"lettuce,custom_chinese",18.5,67,,realme_RMX3840_0FE2DF,field
cce01401,21,2,10,images/2026/01/21/latrinidad_balili_bsuback_20260121_011714_cce01401.jpg,1080,1080,1080p,2026-01-21T01:17:14.404Z,16.453725,120.591791,1358,1,3.5,1,35,-2,174,La Trinidad,Balili,BSU Back,"lettuce,custom_chinese",18.5,67,,realme_RMX3840_0FE2DF,field
72f20127,21,3,10,images/2026/01/21/latrinidad_balili_bsuback_20260121_011720_72f20127.jpg,1080,1080,1080p,2026-01-21T01:17:20.532Z,16.453725,120.591791,1358,1,3.5,1,34,6,86,La Trinidad,Balili,BSU Back,"lettuce,custom_chinese",18.5,67,,realme_RMX3840_0FE2DF,field
d58ec911,21,4,10,images/2026/01/21/latrinidad_balili_bsuback_20260121_011724_d58ec911.jpg,1080,1080,1080p,2026-01-21T01:17:24.145Z,16.453725,120.591791,1358,1,3.5,1,35,8,86,La Trinidad,Balili,BSU Back,"lettuce,custom_chinese",18.5,67,,realme_RMX3840_0FE2DF,field
971ae787,21,5,10,images/2026/01/21/latrinidad_balili_bsuback_20260121_011735_971ae787.jpg,1080,1080,1080p,2026-01-21T01:17:35.556Z,16.453725,120.591791,1358,1,3.5,1,32,-2,264,La Trinidad,Balili,BSU Back,"lettuce,custom_chinese",18.5,67,,realme_RMX3840_0FE2DF,field
c78c0afe,21,6,10,images/2026/01/21/latrinidad_balili_bsuback_20260121_011739_c78c0afe.jpg,1080,1080,1080p,2026-01-21T01:17:39.504Z,16.453725,120.591791,1358,1,3.5,1,32,-1,264,La Trinidad,Balili,BSU Back,"lettuce,custom_chinese",18.5,67,,realme_RMX3840_0FE2DF,field
bcd63fbf,21,7,10,images/2026/01/21/latrinidad_balili_bsuback_20260121_011745_bcd63fbf.jpg,1080,1080,1080p,2026-01-21T01:17:45.160Z,16.453725,120.591791,1358,1,3.5,1,26,-11,359,La Trinidad,Balili,BSU Back,"lettuce,custom_chinese",18.5,67,,realme_RMX3840_0FE2DF,field
533eea8c,21,8,10,images/2026/01/21/latrinidad_balili_bsuback_20260121_011748_533eea8c.jpg,1080,1080,1080p,2026-01-21T01:17:48.766Z,16.453725,120.591791,1358,1,3.5,1,26,-10,357,La Trinidad,Balili,BSU Back,"lettuce,custom_chinese",18.5,67,,realme_RMX3840_0FE2DF,field
09c6250c,21,9,10,images/2026/01/21/latrinidad_balili_bsuback_20260121_011754_09c6250c.jpg,1080,1080,1080p,2026-01-21T01:17:54.126Z,16.453725,120.591791,1358,1,3.5,1,3,-9,355,La Trinidad,Balili,BSU Back,"lettuce,custom_chinese",18.5,67,,realme_RMX3840_0FE2DF,field
44ba3f8f,21,10,10,images/2026/01/21/latrinidad_balili_bsuback_20260121_011757_44ba3f8f.jpg,1080,1080,1080p,2026-01-21T01:17:57.402Z,16.453725,120.591791,1358,1,3.5,1,3,-8,355,La Trinidad,Balili,BSU Back,"lettuce,custom_chinese",18.5,67,,realme_RMX3840_0FE2DF,field
cc3e974d,22,2,10,images/2026/01/21/latrinidad_balili_bsuback_20260121_011908_cc3e974d.jpg,1080,1080,1080p,2026-01-21T01:19:08.114Z,16.453682,120.591793,1359,3,3.3,1,23,3,179,La Trinidad,Balili,BSU Back,"lettuce,custom_chinese",18.5,67,,realme_RMX3840_0FE2DF,field
de5e56c1,22,4,10,images/2026/01/21/latrinidad_balili_bsuback_20260121_011917_de5e56c1.jpg,1080,1080,1080p,2026-01-21T01:19:17.475Z,16.453682,120.591793,1359,3,3.3,1,32,0,98,La Trinidad,Balili,BSU Back,"lettuce,custom_chinese",18.5,67,,realme_RMX3840_0FE2DF,field
d13eb61e,22,6,10,images/2026/01/21/latrinidad_balili_bsuback_20260121_011928_d13eb61e.jpg,1080,1080,1080p,2026-01-21T01:19:28.548Z,16.453682,120.591793,1359,3,3.3,1,42,2,355,La Trinidad,Balili,BSU Back,"lettuce,custom_chinese",18.5,67,,realme_RMX3840_0FE2DF,field
acf9e380,22,8,10,images/2026/01/21/latrinidad_balili_bsuback_20260121_011938_acf9e380.jpg,1080,1080,1080p,2026-01-21T01:19:38.211Z,16.453682,120.591793,1359,3,3.3,1,33,8,272,La Trinidad,Balili,BSU Back,"lettuce,custom_chinese",18.5,67,,realme_RMX3840_0FE2DF,field
f23fe377,22,10,10,images/2026/01/21/latrinidad_balili_bsuback_20260121_011951_f23fe377.jpg,1080,1080,1080p,2026-01-21T01:19:51.456Z,16.453682,120.591793,1359,3,3.3,1,28,0,160,La Trinidad,Balili,BSU Back,"lettuce,custom_chinese",18.5,67,,realme_RMX3840_0FE2DF,field
1d10db26,24,1,10,images/2026/01/21/latrinidad_balili_bsuback_20260121_012323_1d10db26.jpg,1080,1080,1080p,2026-01-21T01:23:23.893Z,16.453766,120.591799,1358,8,3.8,1,29,-1,204,La Trinidad,Balili,BSU Back,"lettuce,custom_chinese",18.6,66,,realme_RMX3840_0FE2DF,field
d6c75bfc,24,2,10,images/2026/01/21/latrinidad_balili_bsuback_20260121_012327_d6c75bfc.jpg,1080,1080,1080p,2026-01-21T01:23:27.469Z,16.453766,120.591799,1358,8,3.8,1,30,0,205,La Trinidad,Balili,BSU Back,"lettuce,custom_chinese",18.6,66,,realme_RMX3840_0FE2DF,field
2cfe1ebe,24,3,10,images/2026/01/21/latrinidad_balili_bsuback_20260121_012335_2cfe1ebe.jpg,1080,1080,1080p,2026-01-21T01:23:35.491Z,16.453766,120.591819,1363,7,5.3,1,31,1,115,La Trinidad,Balili,BSU Back,"lettuce,custom_chinese",18.6,66,,realme_RMX3840_0FE2DF,field
6c6e7adf,24,4,10,images/2026/01/21/latrinidad_balili_bsuback_20260121_012338_6c6e7adf.jpg,1080,1080,1080p,2026-01-21T01:23:38.966Z,16.453766,120.591819,1363,7,5.3,1,31,3,115,La Trinidad,Balili,BSU Back,"lettuce,custom_chinese",18.6,66,,realme_RMX3840_0FE2DF,field
691ff1f4,24,5,10,images/2026/01/21/latrinidad_balili_bsuback_20260121_012347_691ff1f4.jpg,1080,1080,1080p,2026-01-21T01:23:47.168Z,16.453766,120.591819,1363,7,5.3,1,34,0,26,La Trinidad,Balili,BSU Back,"lettuce,custom_chinese",18.6,66,,realme_RMX3840_0FE2DF,field
3bd67d15,24,6,10,images/2026/01/21/latrinidad_balili_bsuback_20260121_012350_3bd67d15.jpg,1080,1080,1080p,2026-01-21T01:23:50.740Z,16.453766,120.591819,1363,7,5.3,1,34,0,26,La Trinidad,Balili,BSU Back,"lettuce,custom_chinese",18.6,66,,realme_RMX3840_0FE2DF,field
d039ec64,24,7,10,images/2026/01/21/latrinidad_balili_bsuback_20260121_012400_d039ec64.jpg,1080,1080,1080p,2026-01-21T01:24:00.932Z,16.453766,120.591819,1363,7,5.3,1,33,-3,299,La Trinidad,Balili,BSU Back,"lettuce,custom_chinese",18.6,66,,realme_RMX3840_0FE2DF,field
e2b740b2,24,8,10,images/2026/01/21/latrinidad_balili_bsuback_20260121_012404_e2b740b2.jpg,1080,1080,1080p,2026-01-21T01:24:04.502Z,16.453766,120.591819,1363,7,5.3,1,32,-2,297,La Trinidad,Balili,BSU Back,"lettuce,custom_chinese",18.6,66,,realme_RMX3840_0FE2DF,field
26a8f6b6,24,9,10,images/2026/01/21/latrinidad_balili_bsuback_20260121_012408_26a8f6b6.jpg,1080,1080,1080p,2026-01-21T01:24:08.725Z,16.453766,120.591819,1363,7,5.3,1,3,0,297,La Trinidad,Balili,BSU Back,"lettuce,custom_chinese",18.6,66,,realme_RMX3840_0FE2DF,field
3e8230c8,24,10,10,images/2026/01/21/latrinidad_balili_bsuback_20260121_012415_3e8230c8.jpg,1080,1080,1080p,2026-01-21T01:24:15.695Z,16.453766,120.591819,1363,7,5.3,1,23,4,302,La Trinidad,Balili,BSU Back,"lettuce,custom_chinese",18.6,66,,realme_RMX3840_0FE2DF,field
9fa00fd4,28,1,10,images/2026/01/21/latrinidad_balili_bsuback_20260121_013037_9fa00fd4.jpg,1080,1080,1080p,2026-01-21T01:30:37.152Z,16.453334,120.591681,1363,3,6.7,1,31,4,301,La Trinidad,Balili,BSU Back,"lettuce,custom_chinese",18.6,66,,realme_RMX3840_0FE2DF,field
4b81cb1b,28,3,10,images/2026/01/21/latrinidad_balili_bsuback_20260121_013046_4b81cb1b.jpg,1080,1080,1080p,2026-01-21T01:30:46.624Z,16.453340,120.591700,1358,19,3.8,1,38,-6,32,La Trinidad,Balili,BSU Back,"lettuce,custom_chinese",18.6,66,,realme_RMX3840_0FE2DF,field
8092fb32,28,5,10,images/2026/01/21/latrinidad_balili_bsuback_20260121_013059_8092fb32.jpg,1080,1080,1080p,2026-01-21T01:30:59.739Z,16.453340,120.591700,1358,19,3.8,1,28,6,210,La Trinidad,Balili,BSU Back,"lettuce,custom_chinese",18.6,66,,realme_RMX3840_0FE2DF,field
93cb9e4a,28,7,10,images/2026/01/21/latrinidad_balili_bsuback_20260121_013112_93cb9e4a.jpg,1080,1080,1080p,2026-01-21T01:31:12.806Z,16.453340,120.591700,1358,19,3.8,1,30,2,128,La Trinidad,Balili,BSU Back,"lettuce,custom_chinese",18.6,66,,realme_RMX3840_0FE2DF,field
9470926d,28,10,10,images/2026/01/21/latrinidad_balili_bsuback_20260121_013131_9470926d.jpg,1080,1080,1080p,2026-01-21T01:31:31.398Z,16.453340,120.591700,1358,19,3.8,1,36,11,104,La Trinidad,Balili,BSU Back,"lettuce,custom_chinese",18.6,66,,realme_RMX3840_0FE2DF,field
3db77669,31,1,10,images/2026/01/21/latrinidad_balili_bsuback_20260121_013936_3db77669.jpg,1080,1080,1080p,2026-01-21T01:39:36.123Z,16.453092,120.591528,1363,2,3.4,1,24,-4,21,La Trinidad,Balili,BSU Back,tomato,18.6,66,,realme_RMX3840_0FE2DF,field
8e5aefdc,31,2,10,images/2026/01/21/latrinidad_balili_bsuback_20260121_013939_8e5aefdc.jpg,1080,1080,1080p,2026-01-21T01:39:39.140Z,16.453092,120.591528,1363,2,3.4,1,27,-4,21,La Trinidad,Balili,BSU Back,tomato,18.6,66,,realme_RMX3840_0FE2DF,field
5302f433,31,3,10,images/2026/01/21/latrinidad_balili_bsuback_20260121_013947_5302f433.jpg,1080,1080,1080p,2026-01-21T01:39:47.342Z,16.453092,120.591528,1363,2,3.4,1,38,4,290,La Trinidad,Balili,BSU Back,tomato,18.6,66,,realme_RMX3840_0FE2DF,field
2c08fda4,31,4,10,images/2026/01/21/latrinidad_balili_bsuback_20260121_013950_2c08fda4.jpg,1080,1080,1080p,2026-01-21T01:39:50.428Z,16.453092,120.591528,1363,2,3.4,1,36,6,288,La Trinidad,Balili,BSU Back,tomato,18.6,66,,realme_RMX3840_0FE2DF,field
5daa6099,31,5,10,images/2026/01/21/latrinidad_balili_bsuback_20260121_013959_5daa6099.jpg,1080,1080,1080p,2026-01-21T01:39:59.925Z,16.453105,120.591509,1363,3,4.6,1,40,-1,102,La Trinidad,Balili,BSU Back,tomato,18.6,66,,realme_RMX3840_0FE2DF,field
efd4d879,31,6,10,images/2026/01/21/latrinidad_balili_bsuback_20260121_014003_efd4d879.jpg,1080,1080,1080p,2026-01-21T01:40:03.064Z,16.453105,120.591509,1363,3,4.6,1,40,-2,103,La Trinidad,Balili,BSU Back,tomato,18.6,66,,realme_RMX3840_0FE2DF,field
9b180017,31,7,10,images/2026/01/21/latrinidad_balili_bsuback_20260121_014014_9b180017.jpg,1080,1080,1080p,2026-01-21T01:40:14.908Z,16.453105,120.591509,1363,3,4.6,1,32,-12,195,La Trinidad,Balili,BSU Back,tomato,18.6,66,,realme_RMX3840_0FE2DF,field
834bcb5f,31,8,10,images/2026/01/21/latrinidad_balili_bsuback_20260121_014018_834bcb5f.jpg,1080,1080,1080p,2026-01-21T01:40:18.358Z,16.453105,120.591509,1363,3,4.6,1,32,-12,198,La Trinidad,Balili,BSU Back,tomato,18.6,66,,realme_RMX3840_0FE2DF,field
04db0ad4,31,9,10,images/2026/01/21/latrinidad_balili_bsuback_20260121_014025_04db0ad4.jpg,1080,1080,1080p,2026-01-21T01:40:25.548Z,16.453105,120.591509,1363,3,4.6,1,12,-7,159,La Trinidad,Balili,BSU Back,tomato,18.6,66,,realme_RMX3840_0FE2DF,field
cb553180,31,10,10,images/2026/01/21/latrinidad_balili_bsuback_20260121_014028_cb553180.jpg,1080,1080,1080p,2026-01-21T01:40:29.062Z,16.453105,120.591509,1363,3,4.6,1,7,0,154,La Trinidad,Balili,BSU Back,tomato,18.6,66,,realme_RMX3840_0FE2DF,field
6a472a8f,34,1,10,images/2026/01/21/latrinidad_balili_bsuback_20260121_014055_6a472a8f.jpg,1080,1080,1080p,2026-01-21T01:40:55.329Z,16.453142,120.591550,1363,2,5.2,1,4,-7,11,La Trinidad,Balili,BSU Back,tomato,19.2,58,,realme_RMX3840_0FE2DF,field
53cacdf3,34,2,10,images/2026/01/21/latrinidad_balili_bsuback_20260121_014057_53cacdf3.jpg,1080,1080,1080p,2026-01-21T01:40:57.992Z,16.453142,120.591550,1363,2,5.2,1,7,-5,13,La Trinidad,Balili,BSU Back,tomato,19.2,58,,realme_RMX3840_0FE2DF,field
a3921638,34,3,10,images/2026/01/21/latrinidad_balili_bsuback_20260121_014102_a3921638.jpg,1080,1080,1080p,2026-01-21T01:41:03.012Z,16.453142,120.591550,1363,2,5.2,1,0,-34,10,La Trinidad,Balili,BSU Back,tomato,19.2,58,,realme_RMX3840_0FE2DF,field
4290aa02,34,4,10,images/2026/01/21/latrinidad_balili_bsuback_20260121_014105_4290aa02.jpg,1080,1080,1080p,2026-01-21T01:41:06.046Z,16.453142,120.591550,1363,2,5.2,1,0,-33,10,La Trinidad,Balili,BSU Back,tomato,19.2,58,,realme_RMX3840_0FE2DF,field
9379dd82,34,5,10,images/2026/01/21/latrinidad_balili_bsuback_20260121_014110_9379dd82.jpg,1080,1080,1080p,2026-01-21T01:41:10.407Z,16.453142,120.591550,1363,2,5.2,1,37,-3,7,La Trinidad,Balili,BSU Back,tomato,19.2,58,,realme_RMX3840_0FE2DF,field
e9ba1a44,34,6,10,images/2026/01/21/latrinidad_balili_bsuback_20260121_014113_e9ba1a44.jpg,1080,1080,1080p,2026-01-21T01:41:13.352Z,16.453160,120.591557,1363,4,5.2,1,38,-3,8,La Trinidad,Balili,BSU Back,tomato,19.2,58,,realme_RMX3840_0FE2DF,field
2d925aa4,34,7,10,images/2026/01/21/latrinidad_balili_bsuback_20260121_014120_2d925aa4.jpg,1080,1080,1080p,2026-01-21T01:41:20.110Z,16.453160,120.591557,1363,4,5.2,1,4,-34,180,La Trinidad,Balili,BSU Back,tomato,19.2,58,,realme_RMX3840_0FE2DF,field
ad5b6bb1,34,8,10,images/2026/01/21/latrinidad_balili_bsuback_20260121_014123_ad5b6bb1.jpg,1080,1080,1080p,2026-01-21T01:41:23.258Z,16.453160,120.591557,1363,4,5.2,1,4,-34,183,La Trinidad,Balili,BSU Back,tomato,19.2,58,,realme_RMX3840_0FE2DF,field
e1822dab,34,9,10,images/2026/01/21/latrinidad_balili_bsuback_20260121_014126_e1822dab.jpg,1080,1080,1080p,2026-01-21T01:41:26.670Z,16.453160,120.591557,1363,4,5.2,1,-1,-6,183,La Trinidad,Balili,BSU Back,tomato,19.2,58,,realme_RMX3840_0FE2DF,field
b23b5582,34,10,10,images/2026/01/21/latrinidad_balili_bsuback_20260121_014132_b23b5582.jpg,1080,1080,1080p,2026-01-21T01:41:32.418Z,16.453160,120.591557,1363,4,5.2,1,60,-9,122,La Trinidad,Balili,BSU Back,tomato,19.2,58,,realme_RMX3840_0FE2DF,field
72ed9e7e,33,1,10,images/2026/01/21/latrinidad_balili_bsuback_20260121_014312_72ed9e7e.jpg,1080,1080,1080p,2026-01-21T01:43:12.458Z,16.453167,120.591526,1363,2,4.8,1,7,-11,131,La Trinidad,Balili,BSU Back,tomato,19.2,58,,realme_RMX3840_0FE2DF,field
7632bbc1,33,3,10,images/2026/01/21/latrinidad_balili_bsuback_20260121_014320_7632bbc1.jpg,1080,1080,1080p,2026-01-21T01:43:21.009Z,16.453167,120.591526,1363,2,4.8,1,18,-14,148,La Trinidad,Balili,BSU Back,tomato,19.2,58,,realme_RMX3840_0FE2DF,field
e6b97bf3,33,5,10,images/2026/01/21/latrinidad_balili_bsuback_20260121_014332_e6b97bf3.jpg,1080,1080,1080p,2026-01-21T01:43:32.580Z,16.453167,120.591526,1363,2,4.8,1,32,7,316,La Trinidad,Balili,BSU Back,tomato,19.2,58,,realme_RMX3840_0FE2DF,field
300025f1,33,8,10,images/2026/01/21/latrinidad_balili_bsuback_20260121_014344_300025f1.jpg,1080,1080,1080p,2026-01-21T01:43:44.297Z,16.453167,120.591526,1363,2,4.8,1,5,12,321,La Trinidad,Balili,BSU Back,tomato,19.2,58,,realme_RMX3840_0FE2DF,field
9753f5d2,33,9,10,images/2026/01/21/latrinidad_balili_bsuback_20260121_014351_9753f5d2.jpg,1080,1080,1080p,2026-01-21T01:43:51.839Z,16.453167,120.591526,1363,2,4.8,1,18,4,230,La Trinidad,Balili,BSU Back,tomato,19.2,58,,realme_RMX3840_0FE2DF,field
5b12911f,35,1,10,images/2026/01/21/latrinidad_balili_bsuback_20260121_014617_5b12911f.jpg,1080,1080,1080p,2026-01-21T01:46:17.136Z,16.453163,120.591594,1363,3,7.8,1,22,6,227,La Trinidad,Balili,BSU Back,tomato,19.2,58,,realme_RMX3840_0FE2DF,field
0f2a1376,35,3,10,images/2026/01/21/latrinidad_balili_bsuback_20260121_014627_0f2a1376.jpg,1080,1080,1080p,2026-01-21T01:46:27.207Z,16.453152,120.591579,1363,3,4.3,1,26,8,317,La Trinidad,Balili,BSU Back,tomato,19.2,58,,realme_RMX3840_0FE2DF,field
86c72466,35,5,10,images/2026/01/21/latrinidad_balili_bsuback_20260121_014639_86c72466.jpg,1080,1080,1080p,2026-01-21T01:46:39.749Z,16.453152,120.591579,1363,3,4.3,1,21,-14,49,La Trinidad,Balili,BSU Back,tomato,19.2,58,,realme_RMX3840_0FE2DF,field
38e14fa5,35,7,10,images/2026/01/21/latrinidad_balili_bsuback_20260121_014651_38e14fa5.jpg,1080,1080,1080p,2026-01-21T01:46:51.556Z,16.453152,120.591579,1363,3,4.3,1,19,-3,141,La Trinidad,Balili,BSU Back,tomato,19.2,58,,realme_RMX3840_0FE2DF,field
adaa14dd,35,9,10,images/2026/01/21/latrinidad_balili_bsuback_20260121_014701_adaa14dd.jpg,1080,1080,1080p,2026-01-21T01:47:01.666Z,16.453152,120.591579,1363,3,4.3,1,-10,-1,146,La Trinidad,Balili,BSU Back,tomato,19.2,58,,realme_RMX3840_0FE2DF,field
2e12c0f6,37,1,10,images/2026/01/21/latrinidad_balili_bsuback_20260121_014824_2e12c0f6.jpg,1080,1080,1080p,2026-01-21T01:48:24.726Z,16.453161,120.591406,1363,2,10.7,1,8,8,89,La Trinidad,Balili,BSU Back,tomato,19.2,58,,realme_RMX3840_0FE2DF,field
da5db5e2,37,2,10,images/2026/01/21/latrinidad_balili_bsuback_20260121_014829_da5db5e2.jpg,1080,1080,1080p,2026-01-21T01:48:29.112Z,16.453161,120.591406,1363,2,10.7,1,9,7,90,La Trinidad,Balili,BSU Back,tomato,19.2,58,,realme_RMX3840_0FE2DF,field
beff1d5b,37,3,10,images/2026/01/21/latrinidad_balili_bsuback_20260121_014833_beff1d5b.jpg,1080,1080,1080p,2026-01-21T01:48:33.318Z,16.453159,120.591373,1360,2,6.3,1,33,5,88,La Trinidad,Balili,BSU Back,tomato,19.2,58,,realme_RMX3840_0FE2DF,field
eeb9144f,37,4,10,images/2026/01/21/latrinidad_balili_bsuback_20260121_014837_eeb9144f.jpg,1080,1080,1080p,2026-01-21T01:48:37.752Z,16.453159,120.591373,1360,2,6.3,1,33,5,87,La Trinidad,Balili,BSU Back,tomato,19.2,58,,realme_RMX3840_0FE2DF,field
59084a36,37,5,10,images/2026/01/21/latrinidad_balili_bsuback_20260121_014845_59084a36.jpg,1080,1080,1080p,2026-01-21T01:48:45.217Z,16.453159,120.591373,1360,2,6.3,1,30,-2,281,La Trinidad,Balili,BSU Back,tomato,19.2,58,,realme_RMX3840_0FE2DF,field
75c61b02,37,6,10,images/2026/01/21/latrinidad_balili_bsuback_20260121_014849_75c61b02.jpg,1080,1080,1080p,2026-01-21T01:48:49.529Z,16.453159,120.591373,1360,2,6.3,1,30,-2,280,La Trinidad,Balili,BSU Back,tomato,19.2,58,,realme_RMX3840_0FE2DF,field
4cb59c6d,37,7,10,images/2026/01/21/latrinidad_balili_bsuback_20260121_014854_4cb59c6d.jpg,1080,1080,1080p,2026-01-21T01:48:54.638Z,16.453159,120.591373,1360,2,6.3,1,3,-3,278,La Trinidad,Balili,BSU Back,tomato,19.2,58,,realme_RMX3840_0FE2DF,field
b60ecab0,37,8,10,images/2026/01/21/latrinidad_balili_bsuback_20260121_014858_b60ecab0.jpg,1080,1080,1080p,2026-01-21T01:48:58.990Z,16.453168,120.591391,1360,4,4.6,1,3,1,277,La Trinidad,Balili,BSU Back,tomato,19.2,58,,realme_RMX3840_0FE2DF,field
cffc7c63,37,9,10,images/2026/01/21/latrinidad_balili_bsuback_20260121_014907_cffc7c63.jpg,1080,1080,1080p,2026-01-21T01:49:07.911Z,16.453168,120.591391,1360,4,4.6,1,40,-3,330,La Trinidad,Balili,BSU Back,tomato,19.2,58,,realme_RMX3840_0FE2DF,field
d75461a4,37,10,10,images/2026/01/21/latrinidad_balili_bsuback_20260121_014937_d75461a4.jpg,1080,1080,1080p,2026-01-21T01:49:37.086Z,16.453168,120.591391,1360,4,4.6,1,14,10,175,La Trinidad,Balili,BSU Back,tomato,19.2,58,,realme_RMX3840_0FE2DF,field
43e5eb4f,40,1,10,images/2026/01/21/latrinidad_balili_bsuback_20260121_015223_43e5eb4f.jpg,1080,1080,1080p,2026-01-21T01:52:23.494Z,16.453118,120.591308,1363,2,4.5,1,32,10,151,La Trinidad,Balili,BSU Back,tomato,19.2,58,,realme_RMX3840_0FE2DF,field
49eacd3c,40,3,10,images/2026/01/21/latrinidad_balili_bsuback_20260121_015237_49eacd3c.jpg,1080,1080,1080p,2026-01-21T01:52:37.173Z,16.453118,120.591308,1363,2,4.5,1,19,5,246,La Trinidad,Balili,BSU Back,tomato,19.2,58,,realme_RMX3840_0FE2DF,field
cc2e7477,40,5,10,images/2026/01/21/latrinidad_balili_bsuback_20260121_015248_cc2e7477.jpg,1080,1080,1080p,2026-01-21T01:52:48.796Z,16.453118,120.591308,1363,2,4.5,1,25,2,320,La Trinidad,Balili,BSU Back,tomato,19.2,58,,realme_RMX3840_0FE2DF,field
909b32eb,40,7,10,images/2026/01/21/latrinidad_balili_bsuback_20260121_015306_909b32eb.jpg,1080,1080,1080p,2026-01-21T01:53:06.301Z,16.453118,120.591308,1363,2,4.5,1,33,-1,69,La Trinidad,Balili,BSU Back,tomato,19.2,58,,realme_RMX3840_0FE2DF,field
0306fc6a,40,10,10,images/2026/01/21/latrinidad_balili_bsuback_20260121_015328_0306fc6a.jpg,1080,1080,1080p,2026-01-21T01:53:28.323Z,16.453118,120.591308,1363,2,4.5,1,45,8,26,La Trinidad,Balili,BSU Back,tomato,19.2,58,,realme_RMX3840_0FE2DF,field
a7f1d35f,43,1,10,images/2026/01/21/latrinidad_balili_bsuback_20260121_015759_a7f1d35f.jpg,1080,1080,1080p,2026-01-21T01:57:59.260Z,16.453012,120.591322,1363,4,4.7,1,26,-1,268,La Trinidad,Balili,BSU Back,corn,19.2,58,,realme_RMX3840_0FE2DF,field
31bfafb4,43,3,10,images/2026/01/21/latrinidad_balili_bsuback_20260121_015808_31bfafb4.jpg,1080,1080,1080p,2026-01-21T01:58:08.755Z,16.453012,120.591322,1363,4,4.7,1,25,-7,346,La Trinidad,Balili,BSU Back,corn,19.2,58,,realme_RMX3840_0FE2DF,field
b787f0b1,43,5,10,images/2026/01/21/latrinidad_balili_bsuback_20260121_015819_b787f0b1.jpg,1080,1080,1080p,2026-01-21T01:58:19.092Z,16.453012,120.591322,1363,4,4.7,1,24,5,75,La Trinidad,Balili,BSU Back,corn,19.2,58,,realme_RMX3840_0FE2DF,field
bdbf07d9,43,7,10,images/2026/01/21/latrinidad_balili_bsuback_20260121_015830_bdbf07d9.jpg,1080,1080,1080p,2026-01-21T01:58:30.655Z,16.453012,120.591322,1363,4,4.7,1,26,-7,163,La Trinidad,Balili,BSU Back,corn,19.2,58,,realme_RMX3840_0FE2DF,field
5a51d5cb,43,9,10,images/2026/01/21/latrinidad_balili_bsuback_20260121_015844_5a51d5cb.jpg,1080,1080,1080p,2026-01-21T01:58:44.441Z,16.453012,120.591322,1363,4,4.7,1,2,1,347,La Trinidad,Balili,BSU Back,corn,19.2,58,,realme_RMX3840_0FE2DF,field
25ab33ac,42,1,10,images/2026/01/21/latrinidad_balili_bsuback_20260121_015925_25ab33ac.jpg,1080,1080,1080p,2026-01-21T01:59:25.088Z,16.453007,120.591411,1363,8,6.5,1,6,6,355,La Trinidad,Balili,BSU Back,corn,19.2,58,,realme_RMX3840_0FE2DF,field
282d258c,42,2,10,images/2026/01/21/latrinidad_balili_bsuback_20260121_015928_282d258c.jpg,1080,1080,1080p,2026-01-21T01:59:28.185Z,16.453007,120.591411,1363,8,6.5,1,6,7,355,La Trinidad,Balili,BSU Back,corn,19.2,58,,realme_RMX3840_0FE2DF,field
4ca9f0c2,42,5,10,images/2026/01/21/latrinidad_balili_bsuback_20260121_015942_4ca9f0c2.jpg,1080,1080,1080p,2026-01-21T01:59:42.356Z,16.453007,120.591411,1363,8,6.5,1,28,0,270,La Trinidad,Balili,BSU Back,corn,19.2,58,,realme_RMX3840_0FE2DF,field
3b9210e3,42,7,10,images/2026/01/21/latrinidad_balili_bsuback_20260121_015953_3b9210e3.jpg,1080,1080,1080p,2026-01-21T01:59:53.737Z,16.453007,120.591411,1363,8,6.5,1,31,4,86,La Trinidad,Balili,BSU Back,corn,19.2,58,,realme_RMX3840_0FE2DF,field
5fa5d7da,42,10,10,images/2026/01/21/latrinidad_balili_bsuback_20260121_020009_5fa5d7da.jpg,1080,1080,1080p,2026-01-21T02:00:09.917Z,16.452993,120.591397,1363,4,4.9,1,25,1,170,La Trinidad,Balili,BSU Back,corn,19.2,58,,realme_RMX3840_0FE2DF,field
a188398a,41,1,10,images/2026/01/21/latrinidad_balili_bsuback_20260121_020037_a188398a.jpg,1080,1080,1080p,2026-01-21T02:00:37.185Z,16.453062,120.591455,1363,4,5.6,1,9,14,110,La Trinidad,Balili,BSU Back,corn,19.2,58,,realme_RMX3840_0FE2DF,field
789cb804,41,2,10,images/2026/01/21/latrinidad_balili_bsuback_20260121_020040_789cb804.jpg,1080,1080,1080p,2026-01-21T02:00:40.333Z,16.453062,120.591455,1363,4,5.6,1,10,13,110,La Trinidad,Balili,BSU Back,corn,19.2,58,,realme_RMX3840_0FE2DF,field
0223f024,41,3,10,images/2026/01/21/latrinidad_balili_bsuback_20260121_020045_0223f024.jpg,1080,1080,1080p,2026-01-21T02:00:45.230Z,16.453062,120.591455,1363,4,5.6,1,30,7,111,La Trinidad,Balili,BSU Back,corn,19.2,58,,realme_RMX3840_0FE2DF,field
9232a533,41,4,10,images/2026/01/21/latrinidad_balili_bsuback_20260121_020048_9232a533.jpg,1080,1080,1080p,2026-01-21T02:00:48.351Z,16.453062,120.591455,1363,4,5.6,1,32,7,112,La Trinidad,Balili,BSU Back,corn,19.2,58,,realme_RMX3840_0FE2DF,field
219e28dc,41,5,10,images/2026/01/21/latrinidad_balili_bsuback_20260121_020053_219e28dc.jpg,1080,1080,1080p,2026-01-21T02:00:53.215Z,16.453062,120.591455,1363,4,5.6,1,40,-11,207,La Trinidad,Balili,BSU Back,corn,19.2,58,,realme_RMX3840_0FE2DF,field
f8776297,41,6,10,images/2026/01/21/latrinidad_balili_bsuback_20260121_020056_f8776297.jpg,1080,1080,1080p,2026-01-21T02:00:56.270Z,16.453062,120.591455,1363,4,5.6,1,42,-12,208,La Trinidad,Balili,BSU Back,corn,19.2,58,,realme_RMX3840_0FE2DF,field
deb6e9fa,41,7,10,images/2026/01/21/latrinidad_balili_bsuback_20260121_020104_deb6e9fa.jpg,1080,1080,1080p,2026-01-21T02:01:05.054Z,16.453062,120.591455,1363,4,5.6,1,41,0,11,La Trinidad,Balili,BSU Back,corn,19.2,58,,realme_RMX3840_0FE2DF,field
77bc6312,41,8,10,images/2026/01/21/latrinidad_balili_bsuback_20260121_020111_77bc6312.jpg,1080,1080,1080p,2026-01-21T02:01:11.610Z,16.453062,120.591455,1363,4,5.6,1,41,3,8,La Trinidad,Balili,BSU Back,corn,19.2,58,,realme_RMX3840_0FE2DF,field
a50a15fd,41,9,10,images/2026/01/21/latrinidad_balili_bsuback_20260121_020119_a50a15fd.jpg,1080,1080,1080p,2026-01-21T02:01:19.923Z,16.453062,120.591455,1363,4,5.6,1,36,-6,300,La Trinidad,Balili,BSU Back,corn,19.2,58,,realme_RMX3840_0FE2DF,field
233e6321,41,10,10,images/2026/01/21/latrinidad_balili_bsuback_20260121_020123_233e6321.jpg,1080,1080,1080p,2026-01-21T02:01:23.562Z,16.453062,120.591455,1363,4,5.6,1,34,-4,299,La Trinidad,Balili,BSU Back,corn,19.2,58,,realme_RMX3840_0FE2DF,field
0437cb9c,44,1,10,images/2026/01/21/latrinidad_balili_bsuback_20260121_020328_0437cb9c.jpg,1080,1080,1080p,2026-01-21T02:03:28.319Z,16.452923,120.591317,1358,10,5.8,1,26,-6,272,La Trinidad,Balili,BSU Back,corn,19.2,58,,realme_RMX3840_0FE2DF,field
c863b115,44,2,10,images/2026/01/21/latrinidad_balili_bsuback_20260121_020335_c863b115.jpg,1080,1080,1080p,2026-01-21T02:03:35.980Z,16.452923,120.591317,1358,10,5.8,1,29,-4,269,La Trinidad,Balili,BSU Back,corn,19.2,58,,realme_RMX3840_0FE2DF,field
c74c2724,44,3,10,images/2026/01/21/latrinidad_balili_bsuback_20260121_020345_c74c2724.jpg,1080,1080,1080p,2026-01-21T02:03:45.500Z,16.452918,120.591340,1360,11,3.5,1,27,-2,353,La Trinidad,Balili,BSU Back,corn,19.2,58,,realme_RMX3840_0FE2DF,field
6df1ef85,44,4,10,images/2026/01/21/latrinidad_balili_bsuback_20260121_020348_6df1ef85.jpg,1080,1080,1080p,2026-01-21T02:03:49.011Z,16.452918,120.591340,1360,11,3.5,1,27,-2,354,La Trinidad,Balili,BSU Back,corn,19.2,58,,realme_RMX3840_0FE2DF,field
dedfefa5,44,5,10,images/2026/01/21/latrinidad_balili_bsuback_20260121_020409_dedfefa5.jpg,1080,1080,1080p,2026-01-21T02:04:09.755Z,16.452918,120.591340,1360,11,3.5,1,17,-9,79,La Trinidad,Balili,BSU Back,corn,19.2,58,,realme_RMX3840_0FE2DF,field
308c142c,44,6,10,images/2026/01/21/latrinidad_balili_bsuback_20260121_020413_308c142c.jpg,1080,1080,1080p,2026-01-21T02:04:13.745Z,16.452918,120.591340,1360,11,3.5,1,17,-8,78,La Trinidad,Balili,BSU Back,corn,19.2,58,,realme_RMX3840_0FE2DF,field
b0a0e95c,44,7,10,images/2026/01/21/latrinidad_balili_bsuback_20260121_020419_b0a0e95c.jpg,1080,1080,1080p,2026-01-21T02:04:19.569Z,16.452918,120.591340,1360,11,3.5,1,2,-7,355,La Trinidad,Balili,BSU Back,corn,19.2,58,,realme_RMX3840_0FE2DF,field
daaf3d21,44,8,10,images/2026/01/21/latrinidad_balili_bsuback_20260121_020423_daaf3d21.jpg,1080,1080,1080p,2026-01-21T02:04:23.457Z,16.452918,120.591340,1360,11,3.5,1,4,-4,354,La Trinidad,Balili,BSU Back,corn,19.2,58,,realme_RMX3840_0FE2DF,field
280542fa,44,9,10,images/2026/01/21/latrinidad_balili_bsuback_20260121_020427_280542fa.jpg,1080,1080,1080p,2026-01-21T02:04:27.876Z,16.452918,120.591340,1360,11,3.5,1,1,-6,354,La Trinidad,Balili,BSU Back,corn,19.2,58,,realme_RMX3840_0FE2DF,field
751aba4f,44,10,10,images/2026/01/21/latrinidad_balili_bsuback_20260121_020431_751aba4f.jpg,1080,1080,1080p,2026-01-21T02:04:31.691Z,16.452918,120.591340,1360,11,3.5,1,4,-7,357,La Trinidad,Balili,BSU Back,corn,19.2,58,,realme_RMX3840_0FE2DF,field
1f660891,46,1,10,images/2026/01/21/latrinidad_balili_bsuback_20260121_021100_1f660891.jpg,1080,1080,1080p,2026-01-21T02:11:00.913Z,16.452786,120.591333,1363,15,3.5,1,28,2,120,La Trinidad,Balili,BSU Back,"lettuce,custom_follow_through",19.2,58,,realme_RMX3840_0FE2DF,field
e649c4a8,46,3,10,images/2026/01/21/latrinidad_balili_bsuback_20260121_021112_e649c4a8.jpg,1080,1080,1080p,2026-01-21T02:11:12.549Z,16.452786,120.591333,1363,15,3.5,1,20,-3,298,La Trinidad,Balili,BSU Back,"lettuce,custom_follow_through",19.2,58,,realme_RMX3840_0FE2DF,field
4f872018,46,5,10,images/2026/01/21/latrinidad_balili_bsuback_20260121_021126_4f872018.jpg,1080,1080,1080p,2026-01-21T02:11:26.283Z,16.452786,120.591333,1363,15,3.5,1,20,-8,33,La Trinidad,Balili,BSU Back,"lettuce,custom_follow_through",19.2,58,,realme_RMX3840_0FE2DF,field
cf0dc8e7,46,8,10,images/2026/01/21/latrinidad_balili_bsuback_20260121_021138_cf0dc8e7.jpg,1080,1080,1080p,2026-01-21T02:11:38.750Z,16.452786,120.591333,1363,15,3.5,1,1,-1,37,La Trinidad,Balili,BSU Back,"lettuce,custom_follow_through",19.2,58,,realme_RMX3840_0FE2DF,field
00f45e18,46,10,10,images/2026/01/21/latrinidad_balili_bsuback_20260121_021148_00f45e18.jpg,1080,1080,1080p,2026-01-21T02:11:48.676Z,16.452786,120.591333,1363,15,3.5,1,24,-1,207,La Trinidad,Balili,BSU Back,"lettuce,custom_follow_through",19.2,58,,realme_RMX3840_0FE2DF,field
6df4b02f,49,1,10,images/2026/01/21/latrinidad_balili_bsuback_20260121_021343_6df4b02f.jpg,1080,1080,1080p,2026-01-21T02:13:43.462Z,16.452809,120.591518,1360,2,4.6,1,27,4,276,La Trinidad,Balili,BSU Back,"lettuce,custom_follow_through",19.2,58,,realme_RMX3840_0FE2DF,field
439650d1,49,3,10,images/2026/01/21/latrinidad_balili_bsuback_20260121_021356_439650d1.jpg,1080,1080,1080p,2026-01-21T02:13:56.573Z,16.452809,120.591518,1360,2,4.6,1,30,-4,100,La Trinidad,Balili,BSU Back,"lettuce,custom_follow_through",19.2,58,,realme_RMX3840_0FE2DF,field
8b5cf349,49,5,10,images/2026/01/21/latrinidad_balili_bsuback_20260121_021410_8b5cf349.jpg,1080,1080,1080p,2026-01-21T02:14:10.314Z,16.452809,120.591518,1360,2,4.6,1,14,3,181,La Trinidad,Balili,BSU Back,"lettuce,custom_follow_through",19.2,58,,realme_RMX3840_0FE2DF,field
e9df308a,49,7,10,images/2026/01/21/latrinidad_balili_bsuback_20260121_021430_e9df308a.jpg,1080,1080,1080p,2026-01-21T02:14:30.984Z,16.452809,120.591518,1360,2,4.6,1,31,-12,11,La Trinidad,Balili,BSU Back,"lettuce,custom_follow_through",19.2,58,,realme_RMX3840_0FE2DF,field
75b735b5,49,9,10,images/2026/01/21/latrinidad_balili_bsuback_20260121_021439_75b735b5.jpg,1080,1080,1080p,2026-01-21T02:14:39.734Z,16.452809,120.591518,1360,2,4.6,1,10,-8,9,La Trinidad,Balili,BSU Back,"lettuce,custom_follow_through",19.2,58,,realme_RMX3840_0FE2DF,field
