uuid,spot_number,shot_number,shots_in_spot,image_filename,image_width,image_height,image_quality,capture_datetime,latitude,longitude,altitude_m,altitude_accuracy_m,gps_accuracy_m,gps_reading_count,camera_pitch,camera_roll,camera_heading,municipality,barangay,farm_name,crops,temperature_c,humidity_percent,notes,device_id,capture_mode
698e1d93,1,1,5,images/atok/paoay/no_farm/potato/atok_paoay_20260213_010340_698e1d93.jpg,1280,720,720p,2026-02-13T01:03:40.780Z,16.453463,120.590834,1360,14,3.1,1,30,16,285,Atok,Paoay,,potato,18.6,74,,realme_RMX3840_858067,field
9ac9c1b1,1,2,5,images/atok/paoay/no_farm/potato/atok_paoay_20260213_010353_9ac9c1b1.jpg,1280,720,720p,2026-02-13T01:03:53.365Z,16.453434,120.590817,1358,6,3.8,1,59,18,100,Atok,Paoay,,potato,18.6,74,,realme_RMX3840_858067,field
dc19bba0,1,3,5,images/atok/paoay/no_farm/potato/atok_paoay_20260213_010403_dc19bba0.jpg,1280,720,720p,2026-02-13T01:04:03.349Z,16.453434,120.590840,1360,3,3.8,1,60,8,114,Atok,Paoay,,potato,18.6,74,,realme_RMX3840_858067,field
13fa3435,1,4,5,images/atok/paoay/no_farm/potato/atok_paoay_20260213_010415_13fa3435.jpg,1280,720,720p,2026-02-13T01:04:15.609Z,16.453447,120.590818,1360,14,9.9,1,43,8,255,Atok,Paoay,,potato,18.6,74,,realme_RMX3840_858067,field
dcf14726,1,5,5,images/atok/paoay/no_farm/potato/atok_paoay_20260213_010427_dcf14726.jpg,1280,720,720p,2026-02-13T01:04:27.711Z,16.453447,120.590818,1360,14,9.9,1,35,13,127,Atok,Paoay,,potato,18.6,74,,realme_RMX3840_858067,field
324ef269,2,1,5,images/atok/paoay/no_farm/potato/atok_paoay_20260213_011101_324ef269.jpg,1280,720,720p,2026-02-13T01:11:01.213Z,16.453443,120.590811,1360,6,9.9,1,33,3,278,Atok,Paoay,,potato,18.6,74,,realme_RMX3840_858067,field
72d742a8,2,2,5,images/atok/paoay/no_farm/potato/atok_paoay_20260213_011119_72d742a8.jpg,1280,720,720p,2026-02-13T01:11:19.668Z,16.453443,120.590811,1360,6,9.9,1,40,18,48,Atok,Paoay,,potato,18.6,74,,realme_RMX3840_858067,field
48a2ab5d,2,3,5,images/atok/paoay/no_farm/potato/atok_paoay_20260213_011138_48a2ab5d.jpg,1280,720,720p,2026-02-13T01:11:38.783Z,16.453443,120.590811,1360,6,9.9,1,67,15,94,Atok,Paoay,,potato,18.6,74,,realme_RMX3840_858067,field
a821316f,2,4,5,images/atok/paoay/no_farm/potato/atok_paoay_20260213_011202_a821316f.jpg,1280,720,720p,2026-02-13T01:12:02.690Z,16.453438,120.590829,1360,3,6.0,1,38,19,250,Atok,Paoay,,potato,18.6,74,,realme_RMX3840_858067,field
3d4ccc98,2,5,5,images/atok/paoay/no_farm/potato/atok_paoay_20260213_011212_3d4ccc98.jpg,1280,720,720p,2026-02-13T01:12:12.083Z,16.453438,120.590829,1360,3,6.0,1,63,9,242,Atok,Paoay,,potato,18.6,74,,realme_RMX3840_858067,field
26970d07,4,1,5,images/atok/paoay/no_farm/potato/atok_paoay_20260213_011439_26970d07.jpg,1280,720,720p,2026-02-13T01:14:39.061Z,16.453481,120.590855,1358,5,8.6,1,40,8,287,Atok,Paoay,,potato,18.6,74,,realme_RMX3840_858067,field
59f748d1,4,2,5,images/atok/paoay/no_farm/potato/atok_paoay_20260213_011451_59f748d1.jpg,1280,720,720p,2026-02-13T01:14:51.190Z,16.453466,120.590866,1364,19,6.1,1,36,-1,75,Atok,Paoay,,potato,18.6,74,,realme_RMX3840_858067,field
85ae57bd,4,3,5,images/atok/paoay/no_farm/potato/atok_paoay_20260213_011459_85ae57bd.jpg,1280,720,720p,2026-02-13T01:14:59.590Z,16.453466,120.590866,1364,19,6.1,1,50,10,278,Atok,Paoay,,potato,18.6,74,,realme_RMX3840_858067,field
6ec31502,4,4,5,images/atok/paoay/no_farm/potato/atok_paoay_20260213_011512_6ec31502.jpg,1280,720,720p,2026-02-13T01:15:12.340Z,16.453447,120.590867,1362,19,4.8,1,37,15,244,Atok,Paoay,,potato,18.6,74,,realme_RMX3840_858067,field
f59d058d,4,5,5,images/atok/paoay/no_farm/potato/atok_paoay_20260213_011541_f59d058d.jpg,1280,720,720p,2026-02-13T01:15:41.387Z,16.453431,120.590857,1360,10,4.6,1,38,18,85,Atok,Paoay,,potato,18.6,74,,realme_RMX3840_858067,field
b418ad9d,6,1,5,images/atok/paoay/no_farm/potato/atok_paoay_20260213_011733_b418ad9d.jpg,1280,720,720p,2026-02-13T01:17:33.047Z,16.453424,120.590838,1368,3,5.5,1,53,2,301,Atok,Paoay,,potato,18.6,74,,realme_RMX3840_858067,field
68a5bfdd,6,2,5,images/atok/paoay/no_farm/potato/atok_paoay_20260213_011741_68a5bfdd.jpg,1280,720,720p,2026-02-13T01:17:41.710Z,16.453424,120.590838,1368,3,5.5,1,57,-9,359,Atok,Paoay,,potato,18.6,74,,realme_RMX3840_858067,field
41ea0b74,6,3,5,images/atok/paoay/no_farm/potato/atok_paoay_20260213_011800_41ea0b74.jpg,1280,720,720p,2026-02-13T01:18:00.974Z,16.453424,120.590838,1368,3,5.5,1,50,1,116,Atok,Paoay,,potato,18.6,74,,realme_RMX3840_858067,field
0235e64e,6,4,5,images/atok/paoay/no_farm/potato/atok_paoay_20260213_011820_0235e64e.jpg,1280,720,720p,2026-02-13T01:18:21.075Z,16.453424,120.590838,1368,3,5.5,1,46,12,234,Atok,Paoay,,potato,18.6,74,,realme_RMX3840_858067,field
80d9a643,6,5,5,images/atok/paoay/no_farm/potato/atok_paoay_20260213_011827_80d9a643.jpg,1280,720,720p,2026-02-13T01:18:28.055Z,16.453424,120.590838,1368,3,5.5,1,57,7,252,Atok,Paoay,,potato,18.6,74,,realme_RMX3840_858067,field
258bea1d,7,1,5,images/atok/paoay/no_farm/potato/atok_paoay_20260213_012228_258bea1d.jpg,1280,720,720p,2026-02-13T01:22:28.969Z,16.453414,120.590803,1358,9,9.9,1,45,10,283,Atok,Paoay,,potato,18.6,74,,realme_RMX3840_858067,field
ec4306fb,7,2,5,images/atok/paoay/no_farm/potato/atok_paoay_20260213_012258_ec4306fb.jpg,1280,720,720p,2026-02-13T01:22:58.312Z,16.453417,120.590822,1360,5,5.0,1,44,7,323,Atok,Paoay,,potato,18.6,74,,realme_RMX3840_858067,field
77772c5c,7,3,5,images/atok/paoay/no_farm/potato/atok_paoay_20260213_012311_77772c5c.jpg,1280,720,720p,2026-02-13T01:23:11.780Z,16.453417,120.590822,1360,5,5.0,1,48,14,257,Atok,Paoay,,potato,18.6,74,,realme_RMX3840_858067,field
f83b4740,7,4,5,images/atok/paoay/no_farm/potato/atok_paoay_20260213_012319_f83b4740.jpg,1280,720,720p,2026-02-13T01:23:19.130Z,16.453417,120.590822,1360,5,5.0,1,60,3,269,Atok,Paoay,,potato,18.6,74,,realme_RMX3840_858067,field
bd2bba72,7,5,5,images/atok/paoay/no_farm/potato/atok_paoay_20260213_012339_bd2bba72.jpg,1280,720,720p,2026-02-13T01:23:39.851Z,16.453417,120.590841,1360,12,5.2,1,33,13,156,Atok,Paoay,,potato,18.6,74,,realme_RMX3840_858067,field
30855ed3,9,1,5,images/atok/paoay/no_farm/potato/atok_paoay_20260213_011955_30855ed3.jpg,1280,720,720p,2026-02-13T01:19:56.028Z,16.453424,120.590838,1368,3,5.5,1,40,-3,306,Atok,Paoay,,potato,18.6,74,,realme_RMX3840_858067,field
4e006146,9,2,5,images/atok/paoay/no_farm/potato/atok_paoay_20260213_012005_4e006146.jpg,1280,720,720p,2026-02-13T01:20:05.196Z,16.453424,120.590838,1368,3,5.5,1,53,0,1,Atok,Paoay,,potato,18.6,74,,realme_RMX3840_858067,field
f118d4e0,9,3,5,images/atok/paoay/no_farm/potato/atok_paoay_20260213_012032_f118d4e0.jpg,1280,720,720p,2026-02-13T01:20:32.376Z,16.453424,120.590838,1368,3,5.5,1,67,5,148,Atok,Paoay,,potato,18.6,74,,realme_RMX3840_858067,field
d549f452,9,4,5,images/atok/paoay/no_farm/potato/atok_paoay_20260213_012055_d549f452.jpg,1280,720,720p,2026-02-13T01:20:56.017Z,16.453424,120.590838,1368,3,5.5,1,42,15,222,Atok,Paoay,,potato,18.6,74,,realme_RMX3840_858067,field
e3e69773,9,5,5,images/atok/paoay/no_farm/potato/atok_paoay_20260213_012115_e3e69773.jpg,1280,720,720p,2026-02-13T01:21:15.200Z,16.453424,120.590838,1368,3,5.5,1,55,13,168,Atok,Paoay,,potato,18.6,74,,realme_RMX3840_858067,field
5bda09b8,11,1,5,images/atok/paoay/no_farm/cabbage/atok_paoay_20260213_013251_5bda09b8.jpg,1920,1080,1080p,2026-02-13T01:32:51.331Z,16.453454,120.590843,1362,19,3.3,1,44,10,292,Atok,Paoay,,cabbage,19.1,72,,realme_RMX3840_858067,field
3d791955,11,2,5,images/atok/paoay/no_farm/cabbage/atok_paoay_20260213_013258_3d791955.jpg,1920,1080,1080p,2026-02-13T01:32:58.659Z,16.453454,120.590843,1362,19,3.3,1,58,-9,358,Atok,Paoay,,cabbage,19.1,72,,realme_RMX3840_858067,field
0051dd04,11,3,5,images/atok/paoay/no_farm/cabbage/atok_paoay_20260213_013308_0051dd04.jpg,1920,1080,1080p,2026-02-13T01:33:08.383Z,16.453438,120.590852,1376,15,3.2,1,31,17,251,Atok,Paoay,,cabbage,19.1,72,,realme_RMX3840_858067,field
5832bbd2,11,4,5,images/atok/paoay/no_farm/cabbage/atok_paoay_20260213_013324_5832bbd2.jpg,1920,1080,1080p,2026-02-13T01:33:24.198Z,16.453438,120.590852,1376,15,3.2,1,40,10,272,Atok,Paoay,,cabbage,19.1,72,,realme_RMX3840_858067,field
806df71e,11,5,5,images/atok/paoay/no_farm/cabbage/atok_paoay_20260213_013332_806df71e.jpg,1920,1080,1080p,2026-02-13T01:33:32.148Z,16.453438,120.590852,1376,15,3.2,1,29,9,239,Atok,Paoay,,cabbage,19.1,72,,realme_RMX3840_858067,field
d027c216,12,1,5,images/atok/paoay/no_farm/cabbage/atok_paoay_20260213_013605_d027c216.jpg,1920,1080,1080p,2026-02-13T01:36:05.361Z,16.453464,120.590848,1360,4,5.5,1,29,4,258,Atok,Paoay,,cabbage,19.1,72,,realme_RMX3840_858067,field
843e3ac0,12,2,5,images/atok/paoay/no_farm/cabbage/atok_paoay_20260213_013616_843e3ac0.jpg,1920,1080,1080p,2026-02-13T01:36:16.363Z,16.453464,120.590848,1360,4,5.5,1,52,3,302,Atok,Paoay,,cabbage,19.1,72,,realme_RMX3840_858067,field
09179da6,12,3,5,images/atok/paoay/no_farm/cabbage/atok_paoay_20260213_013628_09179da6.jpg,1920,1080,1080p,2026-02-13T01:36:28.169Z,16.453464,120.590848,1360,4,5.5,1,39,14,275,Atok,Paoay,,cabbage,19.1,72,,realme_RMX3840_858067,field
c4e2e014,12,4,5,images/atok/paoay/no_farm/cabbage/atok_paoay_20260213_013635_c4e2e014.jpg,1920,1080,1080p,2026-02-13T01:36:35.803Z,16.453464,120.590848,1360,4,5.5,1,41,0,278,Atok,Paoay,,cabbage,19.1,72,,realme_RMX3840_858067,field
b87533e5,12,5,5,images/atok/paoay/no_farm/cabbage/atok_paoay_20260213_013647_b87533e5.jpg,1920,1080,1080p,2026-02-13T01:36:47.593Z,16.453464,120.590848,1360,4,5.5,1,44,7,115,Atok,Paoay,,cabbage,19.1,72,,realme_RMX3840_858067,field
82752846,16,1,5,images/atok/paoay/no_farm/cabbage/atok_paoay_20260213_013814_82752846.jpg,1920,1080,1080p,2026-02-13T01:38:14.521Z,16.453460,120.590854,1374,3,5.0,1,46,5,285,Atok,Paoay,,cabbage,19.1,72,,realme_RMX3840_858067,field
a368de4b,16,2,5,images/atok/paoay/no_farm/cabbage/atok_paoay_20260213_013820_a368de4b.jpg,1920,1080,1080p,2026-02-13T01:38:20.293Z,16.453460,120.590854,1374,3,5.0,1,42,17,253,Atok,Paoay,,cabbage,19.1,72,,realme_RMX3840_858067,field
3ad316e7,16,3,5,images/atok/paoay/no_farm/cabbage/atok_paoay_20260213_013830_3ad316e7.jpg,1920,1080,1080p,2026-02-13T01:38:30.154Z,16.453444,120.590845,1376,12,3.2,1,49,11,253,Atok,Paoay,,cabbage,19.1,72,,realme_RMX3840_858067,field
4f67586e,16,4,5,images/atok/paoay/no_farm/cabbage/atok_paoay_20260213_013848_4f67586e.jpg,1920,1080,1080p,2026-02-13T01:38:48.393Z,16.453444,120.590845,1376,12,3.2,1,57,15,257,Atok,Paoay,,cabbage,19.1,72,,realme_RMX3840_858067,field
0e44f2b0,16,5,5,images/atok/paoay/no_farm/cabbage/atok_paoay_20260213_013919_0e44f2b0.jpg,1920,1080,1080p,2026-02-13T01:39:19.308Z,16.453444,120.590845,1376,12,3.2,1,38,8,116,Atok,Paoay,,cabbage,19.1,72,,realme_RMX3840_858067,field
afc8d091,18,1,5,images/atok/paoay/no_farm/cabbage/atok_paoay_20260213_014127_afc8d091.jpg,1920,1080,1080p,2026-02-13T01:41:27.238Z,16.453447,120.590858,1359,19,3.8,1,39,7,285,Atok,Paoay,,cabbage,19.1,72,,realme_RMX3840_858067,field
cca565c8,18,2,5,images/atok/paoay/no_farm/cabbage/atok_paoay_20260213_014210_cca565c8.jpg,1920,1080,1080p,2026-02-13T01:42:10.343Z,16.453435,120.590852,1360,7,7.6,1,42,12,267,Atok,Paoay,,cabbage,19.1,72,,realme_RMX3840_858067,field
47884f62,18,3,5,images/atok/paoay/no_farm/cabbage/atok_paoay_20260213_014218_47884f62.jpg,1920,1080,1080p,2026-02-13T01:42:19.041Z,16.453435,120.590852,1360,7,7.6,1,61,5,172,Atok,Paoay,,cabbage,19.1,72,,realme_RMX3840_858067,field
1cfa9fbb,18,4,5,images/atok/paoay/no_farm/cabbage/atok_paoay_20260213_014227_1cfa9fbb.jpg,1920,1080,1080p,2026-02-13T01:42:28.047Z,16.453426,120.590834,1358,2,3.8,1,56,4,338,Atok,Paoay,,cabbage,19.1,72,,realme_RMX3840_858067,field
b8112443,18,5,5,images/atok/paoay/no_farm/cabbage/atok_paoay_20260213_014234_b8112443.jpg,1920,1080,1080p,2026-02-13T01:42:34.174Z,16.453426,120.590834,1358,2,3.8,1,51,6,274,Atok,Paoay,,cabbage,19.1,72,,realme_RMX3840_858067,field
248fbb73,21,1,5,images/atok/paoay/no_farm/cabbage/atok_paoay_20260213_014344_248fbb73.jpg,1920,1080,1080p,2026-02-13T01:43:44.474Z,16.453462,120.590857,1360,7,3.8,1,50,9,274,Atok,Paoay,,cabbage,22.7,49,,realme_RMX3840_858067,field
a9f7ee81,21,2,5,images/atok/paoay/no_farm/cabbage/atok_paoay_20260213_014404_a9f7ee81.jpg,1920,1080,1080p,2026-02-13T01:44:04.155Z,16.453443,120.590867,1360,3,3.8,1,38,17,258,Atok,Paoay,,cabbage,22.7,49,,realme_RMX3840_858067,field
2bb8e0cc,21,3,5,images/atok/paoay/no_farm/cabbage/atok_paoay_20260213_014413_2bb8e0cc.jpg,1920,1080,1080p,2026-02-13T01:44:13.462Z,16.453443,120.590867,1360,3,3.8,1,55,18,128,Atok,Paoay,,cabbage,22.7,49,,realme_RMX3840_858067,field
bc624590,21,4,5,images/atok/paoay/no_farm/cabbage/atok_paoay_20260213_014421_bc624590.jpg,1920,1080,1080p,2026-02-13T01:44:21.801Z,16.453443,120.590867,1360,3,3.8,1,47,7,358,Atok,Paoay,,cabbage,22.7,49,,realme_RMX3840_858067,field
99632841,21,5,5,images/atok/paoay/no_farm/cabbage/atok_paoay_20260213_014433_99632841.jpg,1920,1080,1080p,2026-02-13T01:44:33.630Z,16.453445,120.590847,1360,10,9.9,1,40,-2,270,Atok,Paoay,,cabbage,22.7,49,,realme_RMX3840_858067,field
be415bf2,24,1,5,images/atok/paoay/no_farm/cabbage/atok_paoay_20260213_014534_be415bf2.jpg,1920,1080,1080p,2026-02-13T01:45:34.320Z,16.453443,120.590916,1360,5,10.1,1,21,2,290,Atok,Paoay,,cabbage,22.7,49,,realme_RMX3840_858067,field
1cfdf70c,24,2,5,images/atok/paoay/no_farm/cabbage/atok_paoay_20260213_014539_1cfdf70c.jpg,1920,1080,1080p,2026-02-13T01:45:39.420Z,16.453434,120.590886,1360,5,10.1,1,43,11,256,Atok,Paoay,,cabbage,22.7,49,,realme_RMX3840_858067,field
512f4b0d,24,3,5,images/atok/paoay/no_farm/cabbage/atok_paoay_20260213_014548_512f4b0d.jpg,1920,1080,1080p,2026-02-13T01:45:48.631Z,16.453426,120.590866,1358,4,10.5,1,35,4,19,Atok,Paoay,,cabbage,22.7,49,,realme_RMX3840_858067,field
570e4fad,24,4,5,images/atok/paoay/no_farm/cabbage/atok_paoay_20260213_014556_570e4fad.jpg,1920,1080,1080p,2026-02-13T01:45:56.340Z,16.453426,120.590866,1358,4,10.5,1,37,8,102,Atok,Paoay,,cabbage,22.7,49,,realme_RMX3840_858067,field
ce5e85e3,24,5,5,images/atok/paoay/no_farm/cabbage/atok_paoay_20260213_014605_ce5e85e3.jpg,1920,1080,1080p,2026-02-13T01:46:05.652Z,16.453426,120.590866,1358,4,10.5,1,35,3,196,Atok,Paoay,,cabbage,22.7,49,,realme_RMX3840_858067,field
eab5849c,26,1,5,images/atok/paoay/no_farm/radish/atok_paoay_20260213_014752_eab5849c.jpg,1920,1080,1080p,2026-02-13T01:47:52.210Z,16.453453,120.590841,1358,5,3.8,1,38,6,280,Atok,Paoay,,radish,22.7,49,,realme_RMX3840_858067,field
223ab1c9,26,2,5,images/atok/paoay/no_farm/radish/atok_paoay_20260213_014800_223ab1c9.jpg,1920,1080,1080p,2026-02-13T01:48:00.079Z,16.453459,120.590862,1360,4,3.8,1,49,9,257,Atok,Paoay,,radish,22.7,49,,realme_RMX3840_858067,field
22926277,26,3,5,images/atok/paoay/no_farm/radish/atok_paoay_20260213_014808_22926277.jpg,1920,1080,1080p,2026-02-13T01:48:08.861Z,16.453459,120.590862,1360,4,3.8,1,43,5,5,Atok,Paoay,,radish,22.7,49,,realme_RMX3840_858067,field
4219943f,26,4,5,images/atok/paoay/no_farm/radish/atok_paoay_20260213_014817_4219943f.jpg,1920,1080,1080p,2026-02-13T01:48:17.109Z,16.453439,120.590867,1360,6,10.0,1,32,18,75,Atok,Paoay,,radish,22.7,49,,realme_RMX3840_858067,field
09d69d44,26,5,5,images/atok/paoay/no_farm/radish/atok_paoay_20260213_014823_09d69d44.jpg,1920,1080,1080p,2026-02-13T01:48:23.316Z,16.453439,120.590867,1360,6,10.0,1,52,7,271,Atok,Paoay,,radish,22.7,49,,realme_RMX3840_858067,field
ee05e9ea,28,1,5,images/atok/paoay/no_farm/radish/atok_paoay_20260213_014936_ee05e9ea.jpg,1920,1080,1080p,2026-02-13T01:49:36.080Z,16.453446,120.590846,1378,19,10.2,1,49,-9,289,Atok,Paoay,,radish,22.7,49,,realme_RMX3840_858067,field
ad7aa9ea,28,2,5,images/atok/paoay/no_farm/radish/atok_paoay_20260213_014941_ad7aa9ea.jpg,1920,1080,1080p,2026-02-13T01:49:41.428Z,16.453446,120.590846,1378,19,10.2,1,55,7,331,Atok,Paoay,,radish,22.7,49,,realme_RMX3840_858067,field
96074190,28,3,5,images/atok/paoay/no_farm/radish/atok_paoay_20260213_014946_96074190.jpg,1920,1080,1080p,2026-02-13T01:49:47.028Z,16.453446,120.590846,1378,19,10.2,1,59,4,112,Atok,Paoay,,radish,22.7,49,,realme_RMX3840_858067,field
0b4ab2a2,28,4,5,images/atok/paoay/no_farm/radish/atok_paoay_20260213_014954_0b4ab2a2.jpg,1920,1080,1080p,2026-02-13T01:49:54.069Z,16.453429,120.590837,1359,3,9.9,1,48,27,261,Atok,Paoay,,radish,22.7,49,,realme_RMX3840_858067,field
7bbbcff2,28,5,5,images/atok/paoay/no_farm/radish/atok_paoay_20260213_014959_7bbbcff2.jpg,1920,1080,1080p,2026-02-13T01:49:59.119Z,16.453429,120.590837,1359,3,9.9,1,56,20,274,Atok,Paoay,,radish,22.7,49,,realme_RMX3840_858067,field
668a06ad,31,1,5,images/atok/paoay/no_farm/radish/atok_paoay_20260213_015218_668a06ad.jpg,1920,1080,1080p,2026-02-13T01:52:18.131Z,16.453439,120.590853,1360,9,3.8,1,55,9,259,Atok,Paoay,,radish,22.7,49,,realme_RMX3840_858067,field
c9a9746e,31,2,5,images/atok/paoay/no_farm/radish/atok_paoay_20260213_015230_c9a9746e.jpg,1920,1080,1080p,2026-02-13T01:52:30.126Z,16.453439,120.590853,1360,9,3.8,1,51,10,271,Atok,Paoay,,radish,22.7,49,,realme_RMX3840_858067,field
0585c14e,31,3,5,images/atok/paoay/no_farm/radish/atok_paoay_20260213_015244_0585c14e.jpg,1920,1080,1080p,2026-02-13T01:52:44.095Z,16.453423,120.590863,1362,17,3.8,1,56,8,348,Atok,Paoay,,radish,22.7,49,,realme_RMX3840_858067,field
ceeb846d,31,4,5,images/atok/paoay/no_farm/radish/atok_paoay_20260213_015306_ceeb846d.jpg,1920,1080,1080p,2026-02-13T01:53:06.273Z,16.453423,120.590863,1362,17,3.8,1,64,29,85,Atok,Paoay,,radish,22.7,49,,realme_RMX3840_858067,field
cd47f280,31,5,5,images/atok/paoay/no_farm/radish/atok_paoay_20260213_015334_cd47f280.jpg,1920,1080,1080p,2026-02-13T01:53:34.789Z,16.453411,120.590849,1360,5,9.9,1,55,17,274,Atok,Paoay,,radish,22.7,49,,realme_RMX3840_858067,field
fdae4e78,33,1,5,images/atok/paoay/no_farm/radish/atok_paoay_20260213_015455_fdae4e78.jpg,1920,1080,1080p,2026-02-13T01:54:55.774Z,16.453447,120.590874,1362,14,7.5,1,37,6,255,Atok,Paoay,,radish,22.7,49,,realme_RMX3840_858067,field
e24d8808,33,2,5,images/atok/paoay/no_farm/radish/atok_paoay_20260213_015502_e24d8808.jpg,1920,1080,1080p,2026-02-13T01:55:02.236Z,16.453447,120.590874,1362,14,7.5,1,44,15,238,Atok,Paoay,,radish,22.7,49,,realme_RMX3840_858067,field
10db84c3,33,3,5,images/atok/paoay/no_farm/radish/atok_paoay_20260213_015522_10db84c3.jpg,1920,1080,1080p,2026-02-13T01:55:22.536Z,16.453447,120.590874,1362,14,7.5,1,68,10,9,Atok,Paoay,,radish,22.7,49,,realme_RMX3840_858067,field
3a70696c,33,4,5,images/atok/paoay/no_farm/radish/atok_paoay_20260213_015535_3a70696c.jpg,1920,1080,1080p,2026-02-13T01:55:36.030Z,16.453430,120.590882,1360,2,4.7,1,58,4,131,Atok,Paoay,,radish,22.7,49,,realme_RMX3840_858067,field
7ee6cc46,33,5,5,images/atok/paoay/no_farm/radish/atok_paoay_20260213_015546_7ee6cc46.jpg,1920,1080,1080p,2026-02-13T01:55:46.722Z,16.453430,120.590882,1360,2,4.7,1,35,20,172,Atok,Paoay,,radish,22.7,49,,realme_RMX3840_858067,field
10bbb56e,35,1,5,images/atok/paoay/no_farm/radish/atok_paoay_20260213_015801_10bbb56e.jpg,1920,1080,1080p,2026-02-13T01:58:01.540Z,16.453461,120.590819,1360,12,6.4,1,46,10,249,Atok,Paoay,,radish,22.7,49,,realme_RMX3840_858067,field
faba0868,35,2,5,images/atok/paoay/no_farm/radish/atok_paoay_20260213_015811_faba0868.jpg,1920,1080,1080p,2026-02-13T01:58:11.888Z,16.453461,120.590819,1360,12,6.4,1,49,15,238,Atok,Paoay,,radish,22.7,49,,realme_RMX3840_858067,field
341cf46c,35,3,5,images/atok/paoay/no_farm/radish/atok_paoay_20260213_015820_341cf46c.jpg,1920,1080,1080p,2026-02-13T01:58:20.788Z,16.453461,120.590819,1360,12,6.4,1,46,7,38,Atok,Paoay,,radish,22.7,49,,realme_RMX3840_858067,field
96a30446,35,4,5,images/atok/paoay/no_farm/radish/atok_paoay_20260213_015829_96a30446.jpg,1920,1080,1080p,2026-02-13T01:58:29.056Z,16.453450,120.590833,1360,6,5.3,1,44,11,117,Atok,Paoay,,radish,22.7,49,,realme_RMX3840_858067,field
b5b2b6e7,35,5,5,images/atok/paoay/no_farm/radish/atok_paoay_20260213_015839_b5b2b6e7.jpg,1920,1080,1080p,2026-02-13T01:58:39.154Z,16.453450,120.590833,1360,6,5.3,1,60,12,224,Atok,Paoay,,radish,22.7,49,,realme_RMX3840_858067,field
3902c0b7,36,1,5,images/atok/paoay/no_farm/cabbage/atok_paoay_20260213_020032_3902c0b7.jpg,1920,1080,1080p,2026-02-13T02:00:32.666Z,16.453450,120.590833,1360,6,5.3,1,40,16,227,Atok,Paoay,,cabbage,22.7,49,,realme_RMX3840_858067,field
9d968873,36,2,5,images/atok/paoay/no_farm/cabbage/atok_paoay_20260213_020038_9d968873.jpg,1920,1080,1080p,2026-02-13T02:00:38.837Z,16.453450,120.590833,1360,6,5.3,1,56,9,258,Atok,Paoay,,cabbage,22.7,49,,realme_RMX3840_858067,field
890da27a,36,3,5,images/atok/paoay/no_farm/cabbage/atok_paoay_20260213_020047_890da27a.jpg,1920,1080,1080p,2026-02-13T02:00:47.911Z,16.453450,120.590833,1360,6,5.3,1,56,9,133,Atok,Paoay,,cabbage,22.7,49,,realme_RMX3840_858067,field
70b6c8d7,36,4,5,images/atok/paoay/no_farm/cabbage/atok_paoay_20260213_020055_70b6c8d7.jpg,1920,1080,1080p,2026-02-13T02:00:55.510Z,16.453450,120.590833,1360,6,5.3,1,35,-2,13,Atok,Paoay,,cabbage,22.7,49,,realme_RMX3840_858067,field
bc293316,36,5,5,images/atok/paoay/no_farm/cabbage/atok_paoay_20260213_020106_bc293316.jpg,1920,1080,1080p,2026-02-13T02:01:06.608Z,16.453446,120.590853,1360,6,5.5,1,46,13,237,Atok,Paoay,,cabbage,22.7,49,,realme_RMX3840_858067,field
fa28dc59,39,1,5,images/atok/paoay/no_farm/cabbage/atok_paoay_20260213_020205_fa28dc59.jpg,1920,1080,1080p,2026-02-13T02:02:05.348Z,16.453437,120.590871,1360,9,6.7,1,52,13,256,Atok,Paoay,,cabbage,22.7,49,,realme_RMX3840_858067,field
7773e394,39,2,5,images/atok/paoay/no_farm/cabbage/atok_paoay_20260213_020220_7773e394.jpg,1920,1080,1080p,2026-02-13T02:02:20.342Z,16.453440,120.590851,1360,5,5.6,1,30,9,251,Atok,Paoay,,cabbage,19.7,70,,realme_RMX3840_858067,field
b0973c28,39,3,5,images/atok/paoay/no_farm/cabbage/atok_paoay_20260213_020235_b0973c28.jpg,1920,1080,1080p,2026-02-13T02:02:35.090Z,16.453440,120.590851,1360,5,5.6,1,42,8,29,Atok,Paoay,,cabbage,19.7,70,,realme_RMX3840_858067,field
e3f02c1e,39,4,5,images/atok/paoay/no_farm/cabbage/atok_paoay_20260213_020310_e3f02c1e.jpg,1920,1080,1080p,2026-02-13T02:03:10.938Z,16.453440,120.590851,1360,5,5.6,1,61,13,258,Atok,Paoay,,cabbage,19.7,70,,realme_RMX3840_858067,field
ca259be4,39,5,5,images/atok/paoay/no_farm/cabbage/atok_paoay_20260213_020325_ca259be4.jpg,1920,1080,1080p,2026-02-13T02:03:25.661Z,16.453440,120.590851,1360,5,5.6,1,47,18,206,Atok,Paoay,,cabbage,19.7,70,,realme_RMX3840_858067,field
75109355,43,1,5,images/atok/paoay/no_farm/cabbage/atok_paoay_20260213_020512_75109355.jpg,1920,1080,1080p,2026-02-13T02:05:12.096Z,16.453438,120.590865,1358,5,7.8,1,53,8,280,Atok,Paoay,,cabbage,19.7,70,,realme_RMX3840_858067,field
b3628377,43,2,5,images/atok/paoay/no_farm/cabbage/atok_paoay_20260213_020518_b3628377.jpg,1920,1080,1080p,2026-02-13T02:05:18.330Z,16.453438,120.590865,1358,5,7.8,1,38,32,242,Atok,Paoay,,cabbage,19.7,70,,realme_RMX3840_858067,field
4cf02fa2,43,3,5,images/atok/paoay/no_farm/cabbage/atok_paoay_20260213_020527_4cf02fa2.jpg,1920,1080,1080p,2026-02-13T02:05:27.476Z,16.453438,120.590865,1358,5,7.8,1,38,5,92,Atok,Paoay,,cabbage,19.7,70,,realme_RMX3840_858067,field
7f2afbfd,43,4,5,images/atok/paoay/no_farm/cabbage/atok_paoay_20260213_020533_7f2afbfd.jpg,1920,1080,1080p,2026-02-13T02:05:34.026Z,16.453438,120.590865,1358,5,7.8,1,52,6,270,Atok,Paoay,,cabbage,19.7,70,,realme_RMX3840_858067,field
f109615f,43,5,5,images/atok/paoay/no_farm/cabbage/atok_paoay_20260213_020554_f109615f.jpg,1920,1080,1080p,2026-02-13T02:05:54.550Z,16.453438,120.590865,1358,5,7.8,1,61,3,273,Atok,Paoay,,cabbage,19.7,70,,realme_RMX3840_858067,field