uuid,spot_number,shot_number,shots_in_spot,image_filename,image_width,image_height,image_quality,capture_datetime,latitude,longitude,altitude_m,altitude_accuracy_m,gps_accuracy_m,gps_reading_count,camera_pitch,camera_roll,camera_heading,municipality,barangay,farm_name,crops,temperature_c,humidity_percent,notes,device_id,capture_mode
0ffbec8b,50,1,10,images/2026/01/21/latrinidad_balili_bsuback_20260121_021459_0ffbec8b.jpg,1080,1080,1080p,2026-01-21T02:14:59.443Z,16.452820,120.591569,1363,15,3.0,1,17,-12,269,La Trinidad,Balili,BSU Back,corn,19.2,58,,TECNO_TECNO_CM8_5EAA20,field
a100377c,50,2,10,images/2026/01/21/latrinidad_balili_bsuback_20260121_021503_a100377c.jpg,1080,1080,1080p,2026-01-21T02:15:03.803Z,16.452820,120.591569,1363,15,3.0,1,41,-9,269,La Trinidad,Balili,BSU Back,corn,19.2,58,,TECNO_TECNO_CM8_5EAA20,field
b885cce6,50,3,10,images/2026/01/21/latrinidad_balili_bsuback_20260121_021506_b885cce6.jpg,1080,1080,1080p,2026-01-21T02:15:06.507Z,16.452820,120.591569,1363,15,3.0,1,32,-12,270,La Trinidad,Balili,BSU Back,corn,19.2,58,,TECNO_TECNO_CM8_5EAA20,field
d5959e40,50,4,10,images/2026/01/21/latrinidad_balili_bsuback_20260121_021509_d5959e40.jpg,1080,1080,1080p,2026-01-21T02:15:09.784Z,16.452820,120.591569,1363,15,3.0,1,6,-40,297,La Trinidad,Balili,BSU Back,corn,19.2,58,,TECNO_TECNO_CM8_5EAA20,field
ed56698c,50,5,10,images/2026/01/21/latrinidad_balili_bsuback_20260121_021517_ed56698c.jpg,1080,1080,1080p,2026-01-21T02:15:17.305Z,16.452820,120.591569,1363,15,3.0,1,38,-26,121,La Trinidad,Balili,BSU Back,corn,19.2,58,,TECNO_TECNO_CM8_5EAA20,field
c187129c,50,6,10,images/2026/01/21/latrinidad_balili_bsuback_20260121_021520_c187129c.jpg,1080,1080,1080p,2026-01-21T02:15:20.353Z,16.452820,120.591569,1363,15,3.0,1,33,-29,120,La Trinidad,Balili,BSU Back,corn,19.2,58,,TECNO_TECNO_CM8_5EAA20,field
cb14e652,50,7,10,images/2026/01/21/latrinidad_balili_bsuback_20260121_021531_cb14e652.jpg,1080,1080,1080p,2026-01-21T02:15:31.356Z,16.452820,120.591569,1363,15,3.0,1,46,-33,110,La Trinidad,Balili,BSU Back,corn,19.2,58,,TECNO_TECNO_CM8_5EAA20,field
1d3d3960,50,8,10,images/2026/01/21/latrinidad_balili_bsuback_20260121_021535_1d3d3960.jpg,1080,1080,1080p,2026-01-21T02:15:35.428Z,16.452820,120.591569,1363,15,3.0,1,36,-6,110,La Trinidad,Balili,BSU Back,corn,19.2,58,,TECNO_TECNO_CM8_5EAA20,field
fd2d0000,50,9,10,images/2026/01/21/latrinidad_balili_bsuback_20260121_021546_fd2d0000.jpg,1080,1080,1080p,2026-01-21T02:15:46.812Z,16.452820,120.591569,1363,15,3.0,1,37,1,109,La Trinidad,Balili,BSU Back,corn,19.2,58,,TECNO_TECNO_CM8_5EAA20,field
fbdbbfbb,50,10,10,images/2026/01/21/latrinidad_balili_bsuback_20260121_021634_fbdbbfbb.jpg,1080,1080,1080p,2026-01-21T02:16:34.932Z,16.452842,120.591570,1363,8,3.1,1,27,1,250,La Trinidad,Balili,BSU Back,corn,19.2,58,,TECNO_TECNO_CM8_5EAA20,field
f69f0b99,51,1,10,images/2026/01/21/latrinidad_balili_bsuback_20260121_022429_f69f0b99.jpg,1080,1080,1080p,2026-01-21T02:24:29.507Z,16.452707,120.591732,1363,19,3.0,1,14,-29,358,La Trinidad,Balili,BSU Back,corn,19.4,58,,TECNO_TECNO_CM8_5EAA20,field
f8f9bb79,51,2,10,images/2026/01/21/latrinidad_balili_bsuback_20260121_022435_f8f9bb79.jpg,1080,1080,1080p,2026-01-21T02:24:35.521Z,16.452725,120.591722,1363,19,3.0,1,45,1,348,La Trinidad,Balili,BSU Back,corn,19.4,58,,TECNO_TECNO_CM8_5EAA20,field
97afcd16,51,3,10,images/2026/01/21/latrinidad_balili_bsuback_20260121_022453_97afcd16.jpg,1080,1080,1080p,2026-01-21T02:24:53.696Z,16.452707,120.591720,1363,4,3.0,1,39,7,125,La Trinidad,Balili,BSU Back,corn,19.4,58,,TECNO_TECNO_CM8_5EAA20,field
99f6f364,51,4,10,images/2026/01/21/latrinidad_balili_bsuback_20260121_022456_99f6f364.jpg,1080,1080,1080p,2026-01-21T02:24:56.746Z,16.452707,120.591720,1363,4,3.0,1,39,2,128,La Trinidad,Balili,BSU Back,corn,19.4,58,,TECNO_TECNO_CM8_5EAA20,field
d670e686,51,5,10,images/2026/01/21/latrinidad_balili_bsuback_20260121_022508_d670e686.jpg,1080,1080,1080p,2026-01-21T02:25:08.681Z,16.452728,120.591699,1363,9,3.0,1,36,-3,144,La Trinidad,Balili,BSU Back,corn,19.4,58,,TECNO_TECNO_CM8_5EAA20,field
74d0fae2,51,6,10,images/2026/01/21/latrinidad_balili_bsuback_20260121_022511_74d0fae2.jpg,1080,1080,1080p,2026-01-21T02:25:11.912Z,16.452728,120.591699,1363,9,3.0,1,40,-6,150,La Trinidad,Balili,BSU Back,corn,19.4,58,,TECNO_TECNO_CM8_5EAA20,field
986d4e6a,51,7,10,images/2026/01/21/latrinidad_balili_bsuback_20260121_022518_986d4e6a.jpg,1080,1080,1080p,2026-01-21T02:25:18.513Z,16.452728,120.591699,1363,9,3.0,1,40,-13,160,La Trinidad,Balili,BSU Back,corn,19.4,58,,TECNO_TECNO_CM8_5EAA20,field
14bb9dac,51,8,10,images/2026/01/21/latrinidad_balili_bsuback_20260121_022528_14bb9dac.jpg,1080,1080,1080p,2026-01-21T02:25:28.186Z,16.452728,120.591699,1363,9,3.0,1,40,-8,148,La Trinidad,Balili,BSU Back,corn,19.4,58,,TECNO_TECNO_CM8_5EAA20,field
d9d00d45,51,9,10,images/2026/01/21/latrinidad_balili_bsuback_20260121_022539_d9d00d45.jpg,1080,1080,1080p,2026-01-21T02:25:39.566Z,16.452728,120.591699,1363,9,3.0,1,8,-24,358,La Trinidad,Balili,BSU Back,corn,19.4,58,,TECNO_TECNO_CM8_5EAA20,field
b508c34c,51,10,10,images/2026/01/21/latrinidad_balili_bsuback_20260121_022543_b508c34c.jpg,1080,1080,1080p,2026-01-21T02:25:43.072Z,16.452728,120.591699,1363,9,3.0,1,5,-20,357,La Trinidad,Balili,BSU Back,corn,19.4,58,,TECNO_TECNO_CM8_5EAA20,field
fe4689e1,52,1,10,images/2026/01/21/latrinidad_balili_bsuback_20260121_022702_fe4689e1.jpg,1080,1080,1080p,2026-01-21T02:27:03.019Z,16.452773,120.591600,1360,6,3.7,1,39,-5,76,La Trinidad,Balili,BSU Back,corn,19.4,58,,TECNO_TECNO_CM8_5EAA20,field
6e2811fa,52,2,10,images/2026/01/21/latrinidad_balili_bsuback_20260121_022711_6e2811fa.jpg,1080,1080,1080p,2026-01-21T02:27:11.048Z,16.452773,120.591600,1360,6,3.7,1,31,-2,179,La Trinidad,Balili,BSU Back,corn,19.4,58,,TECNO_TECNO_CM8_5EAA20,field
29c942a7,52,3,10,images/2026/01/21/latrinidad_balili_bsuback_20260121_022714_29c942a7.jpg,1080,1080,1080p,2026-01-21T02:27:14.215Z,16.452773,120.591600,1360,6,3.7,1,34,-1,177,La Trinidad,Balili,BSU Back,corn,19.4,58,,TECNO_TECNO_CM8_5EAA20,field
4c91393d,52,4,10,images/2026/01/21/latrinidad_balili_bsuback_20260121_022718_4c91393d.jpg,1080,1080,1080p,2026-01-21T02:27:18.532Z,16.452773,120.591600,1360,6,3.7,1,12,-1,177,La Trinidad,Balili,BSU Back,corn,19.4,58,,TECNO_TECNO_CM8_5EAA20,field
93e65e92,52,5,10,images/2026/01/21/latrinidad_balili_bsuback_20260121_022721_93e65e92.jpg,1080,1080,1080p,2026-01-21T02:27:21.699Z,16.452773,120.591600,1360,6,3.7,1,9,29,162,La Trinidad,Balili,BSU Back,corn,19.4,58,,TECNO_TECNO_CM8_5EAA20,field
eb6b7b21,52,6,10,images/2026/01/21/latrinidad_balili_bsuback_20260121_022724_eb6b7b21.jpg,1080,1080,1080p,2026-01-21T02:27:24.854Z,16.452773,120.591600,1360,6,3.7,1,5,30,165,La Trinidad,Balili,BSU Back,corn,19.4,58,,TECNO_TECNO_CM8_5EAA20,field
d9dd28c7,52,7,10,images/2026/01/21/latrinidad_balili_bsuback_20260121_022728_d9dd28c7.jpg,1080,1080,1080p,2026-01-21T02:27:28.225Z,16.452773,120.591600,1360,6,3.7,1,14,0,177,La Trinidad,Balili,BSU Back,corn,19.4,58,,TECNO_TECNO_CM8_5EAA20,field
04106bb5,52,8,10,images/2026/01/21/latrinidad_balili_bsuback_20260121_022732_04106bb5.jpg,1080,1080,1080p,2026-01-21T02:27:32.697Z,16.452773,120.591600,1360,6,3.7,1,41,1,174,La Trinidad,Balili,BSU Back,corn,19.4,58,,TECNO_TECNO_CM8_5EAA20,field
c968296e,52,9,10,images/2026/01/21/latrinidad_balili_bsuback_20260121_022737_c968296e.jpg,1080,1080,1080p,2026-01-21T02:27:37.467Z,16.452773,120.591600,1360,6,3.7,1,41,1,172,La Trinidad,Balili,BSU Back,corn,19.4,58,,TECNO_TECNO_CM8_5EAA20,field
f925907b,52,10,10,images/2026/01/21/latrinidad_balili_bsuback_20260121_022749_f925907b.jpg,1080,1080,1080p,2026-01-21T02:27:49.593Z,16.452773,120.591600,1360,6,3.7,1,14,3,191,La Trinidad,Balili,BSU Back,corn,19.4,58,,TECNO_TECNO_CM8_5EAA20,field
daf85e6e,53,2,10,images/2026/01/21/latrinidad_balili_bsuback_20260121_022852_daf85e6e.jpg,1080,1080,1080p,2026-01-21T02:28:52.267Z,16.452694,120.591533,1363,12,3.0,1,-4,-31,196,La Trinidad,Balili,BSU Back,broccoli,19.4,58,,TECNO_TECNO_CM8_5EAA20,field
56a0c601,53,3,10,images/2026/01/21/latrinidad_balili_bsuback_20260121_022858_56a0c601.jpg,1080,1080,1080p,2026-01-21T02:28:58.207Z,16.452694,120.591533,1363,12,3.0,1,39,-6,161,La Trinidad,Balili,BSU Back,broccoli,19.4,58,,TECNO_TECNO_CM8_5EAA20,field
748aa65f,53,4,10,images/2026/01/21/latrinidad_balili_bsuback_20260121_022916_748aa65f.jpg,1080,1080,1080p,2026-01-21T02:29:16.462Z,16.452694,120.591533,1363,12,3.0,1,30,5,105,La Trinidad,Balili,BSU Back,broccoli,19.4,58,,TECNO_TECNO_CM8_5EAA20,field
5a5bb744,53,5,10,images/2026/01/21/latrinidad_balili_bsuback_20260121_022920_5a5bb744.jpg,1080,1080,1080p,2026-01-21T02:29:20.240Z,16.452694,120.591533,1363,12,3.0,1,7,0,98,La Trinidad,Balili,BSU Back,broccoli,19.4,58,,TECNO_TECNO_CM8_5EAA20,field
9dadb057,53,6,10,images/2026/01/21/latrinidad_balili_bsuback_20260121_022923_9dadb057.jpg,1080,1080,1080p,2026-01-21T02:29:23.490Z,16.452694,120.591533,1363,12,3.0,1,3,-2,96,La Trinidad,Balili,BSU Back,broccoli,19.4,58,,TECNO_TECNO_CM8_5EAA20,field
da04f54e,53,7,10,images/2026/01/21/latrinidad_balili_bsuback_20260121_022926_da04f54e.jpg,1080,1080,1080p,2026-01-21T02:29:26.771Z,16.452694,120.591533,1363,12,3.0,1,2,0,96,La Trinidad,Balili,BSU Back,broccoli,19.4,58,,TECNO_TECNO_CM8_5EAA20,field
47f549b9,53,8,10,images/2026/01/21/latrinidad_balili_bsuback_20260121_022933_47f549b9.jpg,1080,1080,1080p,2026-01-21T02:29:33.466Z,16.452694,120.591533,1363,12,3.0,1,19,3,184,La Trinidad,Balili,BSU Back,broccoli,19.4,58,,TECNO_TECNO_CM8_5EAA20,field
a4dcf1b8,53,9,10,images/2026/01/21/latrinidad_balili_bsuback_20260121_022940_a4dcf1b8.jpg,1080,1080,1080p,2026-01-21T02:29:40.146Z,16.452694,120.591533,1363,12,3.0,1,35,-7,353,La Trinidad,Balili,BSU Back,broccoli,19.4,58,,TECNO_TECNO_CM8_5EAA20,field
8aca4793,53,10,10,images/2026/01/21/latrinidad_balili_bsuback_20260121_022948_8aca4793.jpg,1080,1080,1080p,2026-01-21T02:29:48.207Z,16.452694,120.591533,1363,12,3.0,1,30,-5,351,La Trinidad,Balili,BSU Back,broccoli,19.4,58,,TECNO_TECNO_CM8_5EAA20,field
9e02c0b0,53,2,10,images/2026/01/21/latrinidad_balili_bsuback_20260121_023011_9e02c0b0.jpg,1080,1080,1080p,2026-01-21T02:30:11.647Z,16.452694,120.591533,1363,12,3.0,1,22,-5,356,La Trinidad,Balili,BSU Back,broccoli,19.4,58,,TECNO_TECNO_CM8_5EAA20,field
a2dcc4ac,54,1,10,images/2026/01/21/latrinidad_balili_bsuback_20260121_023326_a2dcc4ac.jpg,1080,1080,1080p,2026-01-21T02:33:26.854Z,16.452740,120.591440,1362,17,3.0,1,30,0,287,La Trinidad,Balili,BSU Back,broccoli,20.3,55,,TECNO_TECNO_CM8_5EAA20,field
111925e8,54,2,10,images/2026/01/21/latrinidad_balili_bsuback_20260121_023330_111925e8.jpg,1080,1080,1080p,2026-01-21T02:33:30.242Z,16.452740,120.591440,1362,17,3.0,1,29,0,289,La Trinidad,Balili,BSU Back,broccoli,20.3,55,,TECNO_TECNO_CM8_5EAA20,field
3f7cac31,54,3,10,images/2026/01/21/latrinidad_balili_bsuback_20260121_023333_3f7cac31.jpg,1080,1080,1080p,2026-01-21T02:33:33.830Z,16.452740,120.591440,1362,17,3.0,1,29,7,285,La Trinidad,Balili,BSU Back,broccoli,20.3,55,,TECNO_TECNO_CM8_5EAA20,field
97bfb924,54,4,10,images/2026/01/21/latrinidad_balili_bsuback_20260121_023337_97bfb924.jpg,1080,1080,1080p,2026-01-21T02:33:37.552Z,16.452740,120.591440,1362,17,3.0,1,19,39,275,La Trinidad,Balili,BSU Back,broccoli,20.3,55,,TECNO_TECNO_CM8_5EAA20,field
2b8e52da,54,5,10,images/2026/01/21/latrinidad_balili_bsuback_20260121_023341_2b8e52da.jpg,1080,1080,1080p,2026-01-21T02:33:41.541Z,16.452740,120.591440,1362,17,3.0,1,20,-26,293,La Trinidad,Balili,BSU Back,broccoli,20.3,55,,TECNO_TECNO_CM8_5EAA20,field
32356d09,54,6,10,images/2026/01/21/latrinidad_balili_bsuback_20260121_023348_32356d09.jpg,1080,1080,1080p,2026-01-21T02:33:48.106Z,16.452740,120.591440,1362,17,3.0,1,26,-10,291,La Trinidad,Balili,BSU Back,broccoli,20.3,55,,TECNO_TECNO_CM8_5EAA20,field
fe14b38c,54,7,10,images/2026/01/21/latrinidad_balili_bsuback_20260121_023351_fe14b38c.jpg,1080,1080,1080p,2026-01-21T02:33:51.582Z,16.452740,120.591440,1362,17,3.0,1,43,-3,285,La Trinidad,Balili,BSU Back,broccoli,20.3,55,,TECNO_TECNO_CM8_5EAA20,field
37897914,54,8,10,images/2026/01/21/latrinidad_balili_bsuback_20260121_023401_37897914.jpg,1080,1080,1080p,2026-01-21T02:34:01.152Z,16.452740,120.591440,1362,17,3.0,1,24,3,89,La Trinidad,Balili,BSU Back,broccoli,20.3,55,,TECNO_TECNO_CM8_5EAA20,field
677a43c4,54,9,10,images/2026/01/21/latrinidad_balili_bsuback_20260121_023404_677a43c4.jpg,1080,1080,1080p,2026-01-21T02:34:04.667Z,16.452740,120.591440,1362,17,3.0,1,27,1,90,La Trinidad,Balili,BSU Back,broccoli,20.3,55,,TECNO_TECNO_CM8_5EAA20,field
13317135,54,10,10,images/2026/01/21/latrinidad_balili_bsuback_20260121_023412_13317135.jpg,1080,1080,1080p,2026-01-21T02:34:12.072Z,16.452740,120.591440,1362,17,3.0,1,22,-8,82,La Trinidad,Balili,BSU Back,broccoli,20.3,55,,TECNO_TECNO_CM8_5EAA20,field
e849ed16,55,1,10,images/2026/01/21/latrinidad_balili_bsuback_20260121_023430_e849ed16.jpg,1080,1080,1080p,2026-01-21T02:34:30.605Z,16.452717,120.591361,1360,8,4.0,1,42,4,345,La Trinidad,Balili,BSU Back,broccoli,20.3,55,,TECNO_TECNO_CM8_5EAA20,field
13e3e8b0,55,2,10,images/2026/01/21/latrinidad_balili_bsuback_20260121_023434_13e3e8b0.jpg,1080,1080,1080p,2026-01-21T02:34:34.211Z,16.452717,120.591361,1360,8,4.0,1,40,3,347,La Trinidad,Balili,BSU Back,broccoli,20.3,55,,TECNO_TECNO_CM8_5EAA20,field
2699599b,55,3,10,images/2026/01/21/latrinidad_balili_bsuback_20260121_023438_2699599b.jpg,1080,1080,1080p,2026-01-21T02:34:38.147Z,16.452717,120.591361,1360,8,4.0,1,42,1,348,La Trinidad,Balili,BSU Back,broccoli,20.3,55,,TECNO_TECNO_CM8_5EAA20,field
6b416765,55,4,10,images/2026/01/21/latrinidad_balili_bsuback_20260121_023442_6b416765.jpg,1080,1080,1080p,2026-01-21T02:34:42.035Z,16.452717,120.591361,1360,8,4.0,1,1,-3,358,La Trinidad,Balili,BSU Back,broccoli,20.3,55,,TECNO_TECNO_CM8_5EAA20,field
135dc81d,55,5,10,images/2026/01/21/latrinidad_balili_bsuback_20260121_023445_135dc81d.jpg,1080,1080,1080p,2026-01-21T02:34:45.701Z,16.452717,120.591361,1360,8,4.0,1,-3,-4,358,La Trinidad,Balili,BSU Back,broccoli,20.3,55,,TECNO_TECNO_CM8_5EAA20,field
5e329e29,55,6,10,images/2026/01/21/latrinidad_balili_bsuback_20260121_023449_5e329e29.jpg,1080,1080,1080p,2026-01-21T02:34:49.415Z,16.452717,120.591361,1360,8,4.0,1,-3,-4,358,La Trinidad,Balili,BSU Back,broccoli,20.3,55,,TECNO_TECNO_CM8_5EAA20,field
7117b789,55,7,10,images/2026/01/21/latrinidad_balili_bsuback_20260121_023458_7117b789.jpg,1080,1080,1080p,2026-01-21T02:34:58.561Z,16.452717,120.591361,1360,8,4.0,1,31,-10,192,La Trinidad,Balili,BSU Back,broccoli,20.3,55,,TECNO_TECNO_CM8_5EAA20,field
5eae1c56,55,8,10,images/2026/01/21/latrinidad_balili_bsuback_20260121_023502_5eae1c56.jpg,1080,1080,1080p,2026-01-21T02:35:02.663Z,16.452717,120.591361,1360,8,4.0,1,36,-9,190,La Trinidad,Balili,BSU Back,broccoli,20.3,55,,TECNO_TECNO_CM8_5EAA20,field
d8d59e7e,55,9,10,images/2026/01/21/latrinidad_balili_bsuback_20260121_023506_d8d59e7e.jpg,1080,1080,1080p,2026-01-21T02:35:06.830Z,16.452717,120.591361,1360,8,4.0,1,16,-4,189,La Trinidad,Balili,BSU Back,broccoli,20.3,55,,TECNO_TECNO_CM8_5EAA20,field
6978a6ff,55,10,10,images/2026/01/21/latrinidad_balili_bsuback_20260121_023510_6978a6ff.jpg,1080,1080,1080p,2026-01-21T02:35:10.945Z,16.452717,120.591361,1360,8,4.0,1,2,19,180,La Trinidad,Balili,BSU Back,broccoli,20.3,55,,TECNO_TECNO_CM8_5EAA20,field
39ca162d,56,1,10,images/2026/01/21/latrinidad_balili_bsuback_20260121_023604_39ca162d.jpg,1080,1080,1080p,2026-01-21T02:36:04.910Z,16.452479,120.591338,1359,50,13.2,1,21,-4,203,La Trinidad,Balili,BSU Back,broccoli,20.3,55,,TECNO_TECNO_CM8_5EAA20,field
f355a284,56,2,10,images/2026/01/21/latrinidad_balili_bsuback_20260121_023608_f355a284.jpg,1080,1080,1080p,2026-01-21T02:36:08.859Z,16.452461,120.591330,1358,6,3.1,1,15,-1,210,La Trinidad,Balili,BSU Back,broccoli,20.3,55,,TECNO_TECNO_CM8_5EAA20,field
b94f9fbe,56,3,10,images/2026/01/21/latrinidad_balili_bsuback_20260121_023612_b94f9fbe.jpg,1080,1080,1080p,2026-01-21T02:36:12.821Z,16.452461,120.591330,1358,6,3.1,1,-4,-2,195,La Trinidad,Balili,BSU Back,broccoli,20.3,55,,TECNO_TECNO_CM8_5EAA20,field
17bd4cb5,56,4,10,images/2026/01/21/latrinidad_balili_bsuback_20260121_023616_17bd4cb5.jpg,1080,1080,1080p,2026-01-21T02:36:16.830Z,16.452461,120.591330,1358,6,3.1,1,-7,-1,196,La Trinidad,Balili,BSU Back,broccoli,20.3,55,,TECNO_TECNO_CM8_5EAA20,field
24e21c32,56,5,10,images/2026/01/21/latrinidad_balili_bsuback_20260121_023621_24e21c32.jpg,1080,1080,1080p,2026-01-21T02:36:21.949Z,16.452461,120.591330,1358,6,3.1,1,20,2,15,La Trinidad,Balili,BSU Back,broccoli,20.3,55,,TECNO_TECNO_CM8_5EAA20,field
1d33731b,56,6,10,images/2026/01/21/latrinidad_balili_bsuback_20260121_023645_1d33731b.jpg,1080,1080,1080p,2026-01-21T02:36:45.979Z,16.452476,120.591319,1363,9,3.0,1,14,-8,89,La Trinidad,Balili,BSU Back,broccoli,20.3,55,,TECNO_TECNO_CM8_5EAA20,field
c25814d8,56,7,10,images/2026/01/21/latrinidad_balili_bsuback_20260121_023650_c25814d8.jpg,1080,1080,1080p,2026-01-21T02:36:50.030Z,16.452476,120.591319,1363,9,3.0,1,32,-3,176,La Trinidad,Balili,BSU Back,broccoli,20.3,55,,TECNO_TECNO_CM8_5EAA20,field
92761616,56,8,10,images/2026/01/21/latrinidad_balili_bsuback_20260121_023654_92761616.jpg,1080,1080,1080p,2026-01-21T02:36:54.421Z,16.452476,120.591319,1363,9,3.0,1,18,-6,170,La Trinidad,Balili,BSU Back,broccoli,20.3,55,,TECNO_TECNO_CM8_5EAA20,field
c84f4fdd,56,9,10,images/2026/01/21/latrinidad_balili_bsuback_20260121_023658_c84f4fdd.jpg,1080,1080,1080p,2026-01-21T02:36:58.942Z,16.452476,120.591319,1363,9,3.0,1,4,-6,171,La Trinidad,Balili,BSU Back,broccoli,20.3,55,,TECNO_TECNO_CM8_5EAA20,field
1a3c9b0d,56,10,10,images/2026/01/21/latrinidad_balili_bsuback_20260121_023703_1a3c9b0d.jpg,1080,1080,1080p,2026-01-21T02:37:03.267Z,16.452476,120.591319,1363,9,3.0,1,-9,-19,171,La Trinidad,Balili,BSU Back,broccoli,20.3,55,,TECNO_TECNO_CM8_5EAA20,field
08f46575,57,1,10,images/2026/01/21/latrinidad_balili_bsuback_20260121_023719_08f46575.jpg,1080,1080,1080p,2026-01-21T02:37:19.257Z,16.452504,120.591362,1359,9,3.4,1,25,2,173,La Trinidad,Balili,BSU Back,broccoli,20.3,55,,TECNO_TECNO_CM8_5EAA20,field
6976fe69,57,2,10,images/2026/01/21/latrinidad_balili_bsuback_20260121_023723_6976fe69.jpg,1080,1080,1080p,2026-01-21T02:37:23.729Z,16.452504,120.591362,1359,9,3.4,1,25,2,175,La Trinidad,Balili,BSU Back,broccoli,20.3,55,,TECNO_TECNO_CM8_5EAA20,field
dee017a6,57,3,10,images/2026/01/21/latrinidad_balili_bsuback_20260121_023729_dee017a6.jpg,1080,1080,1080p,2026-01-21T02:37:29.791Z,16.452504,120.591362,1359,9,3.4,1,26,0,182,La Trinidad,Balili,BSU Back,broccoli,20.3,55,,TECNO_TECNO_CM8_5EAA20,field
8e4e3051,57,4,10,images/2026/01/21/latrinidad_balili_bsuback_20260121_023735_8e4e3051.jpg,1080,1080,1080p,2026-01-21T02:37:35.485Z,16.452508,120.591381,1363,4,3.4,1,22,-31,196,La Trinidad,Balili,BSU Back,broccoli,20.3,55,,TECNO_TECNO_CM8_5EAA20,field
1ff25725,57,5,10,images/2026/01/21/latrinidad_balili_bsuback_20260121_023742_1ff25725.jpg,1080,1080,1080p,2026-01-21T02:37:42.051Z,16.452508,120.591381,1363,4,3.4,1,13,1,173,La Trinidad,Balili,BSU Back,broccoli,20.3,55,,TECNO_TECNO_CM8_5EAA20,field
879fc5e7,57,6,10,images/2026/01/21/latrinidad_balili_bsuback_20260121_023747_879fc5e7.jpg,1080,1080,1080p,2026-01-21T02:37:47.082Z,16.452508,120.591381,1363,4,3.4,1,14,0,170,La Trinidad,Balili,BSU Back,broccoli,20.3,55,,TECNO_TECNO_CM8_5EAA20,field
f9d6243a,57,7,10,images/2026/01/21/latrinidad_balili_bsuback_20260121_023757_f9d6243a.jpg,1080,1080,1080p,2026-01-21T02:37:57.778Z,16.452508,120.591381,1363,4,3.4,1,44,-5,91,La Trinidad,Balili,BSU Back,broccoli,20.3,55,,TECNO_TECNO_CM8_5EAA20,field
42b54439,57,8,10,images/2026/01/21/latrinidad_balili_bsuback_20260121_023802_42b54439.jpg,1080,1080,1080p,2026-01-21T02:38:02.357Z,16.452508,120.591381,1363,4,3.4,1,43,-5,90,La Trinidad,Balili,BSU Back,broccoli,20.3,55,,TECNO_TECNO_CM8_5EAA20,field
b828773b,57,9,10,images/2026/01/21/latrinidad_balili_bsuback_20260121_023817_b828773b.jpg,1080,1080,1080p,2026-01-21T02:38:17.476Z,16.452508,120.591381,1363,4,3.4,1,9,-4,89,La Trinidad,Balili,BSU Back,broccoli,20.3,55,,TECNO_TECNO_CM8_5EAA20,field
55608b12,57,10,10,images/2026/01/21/latrinidad_balili_bsuback_20260121_023822_55608b12.jpg,1080,1080,1080p,2026-01-21T02:38:22.254Z,16.452508,120.591381,1363,4,3.4,1,11,-8,90,La Trinidad,Balili,BSU Back,broccoli,20.3,55,,TECNO_TECNO_CM8_5EAA20,field
2469c897,58,1,10,images/2026/01/21/latrinidad_balili_bsuback_20260121_023901_2469c897.jpg,1080,1080,1080p,2026-01-21T02:39:01.987Z,16.452523,120.591464,1360,6,3.0,1,23,10,270,La Trinidad,Balili,BSU Back,broccoli,20.3,55,,TECNO_TECNO_CM8_5EAA20,field
6c447c1e,58,2,10,images/2026/01/21/latrinidad_balili_bsuback_20260121_023906_6c447c1e.jpg,1080,1080,1080p,2026-01-21T02:39:07.000Z,16.452523,120.591464,1360,6,3.0,1,27,11,268,La Trinidad,Balili,BSU Back,broccoli,20.3,55,,TECNO_TECNO_CM8_5EAA20,field
9c7c339f,58,3,10,images/2026/01/21/latrinidad_balili_bsuback_20260121_023912_9c7c339f.jpg,1080,1080,1080p,2026-01-21T02:39:12.041Z,16.452523,120.591464,1360,6,3.0,1,20,8,226,La Trinidad,Balili,BSU Back,broccoli,20.3,55,,TECNO_TECNO_CM8_5EAA20,field
d62ad1ed,58,4,10,images/2026/01/21/latrinidad_balili_bsuback_20260121_023916_d62ad1ed.jpg,1080,1080,1080p,2026-01-21T02:39:16.986Z,16.452523,120.591464,1360,6,3.0,1,17,7,226,La Trinidad,Balili,BSU Back,broccoli,20.3,55,,TECNO_TECNO_CM8_5EAA20,field
fb61afd5,58,5,10,images/2026/01/21/latrinidad_balili_bsuback_20260121_023921_fb61afd5.jpg,1080,1080,1080p,2026-01-21T02:39:21.893Z,16.452523,120.591464,1360,6,3.0,1,6,8,230,La Trinidad,Balili,BSU Back,broccoli,20.3,55,,TECNO_TECNO_CM8_5EAA20,field
668f951a,58,6,10,images/2026/01/21/latrinidad_balili_bsuback_20260121_023926_668f951a.jpg,1080,1080,1080p,2026-01-21T02:39:26.895Z,16.452523,120.591464,1360,6,3.0,1,29,-4,289,La Trinidad,Balili,BSU Back,broccoli,20.3,55,,TECNO_TECNO_CM8_5EAA20,field
1d78184a,58,7,10,images/2026/01/21/latrinidad_balili_bsuback_20260121_023934_1d78184a.jpg,1080,1080,1080p,2026-01-21T02:39:34.983Z,16.452523,120.591464,1360,6,3.0,1,38,-1,79,La Trinidad,Balili,BSU Back,broccoli,20.3,55,,TECNO_TECNO_CM8_5EAA20,field
e4d61237,58,8,10,images/2026/01/21/latrinidad_balili_bsuback_20260121_023939_e4d61237.jpg,1080,1080,1080p,2026-01-21T02:39:39.873Z,16.452523,120.591464,1360,6,3.0,1,37,-1,80,La Trinidad,Balili,BSU Back,broccoli,20.3,55,,TECNO_TECNO_CM8_5EAA20,field
5afd848c,58,9,10,images/2026/01/21/latrinidad_balili_bsuback_20260121_023944_5afd848c.jpg,1080,1080,1080p,2026-01-21T02:39:44.868Z,16.452523,120.591464,1360,6,3.0,1,16,3,57,La Trinidad,Balili,BSU Back,broccoli,20.3,55,,TECNO_TECNO_CM8_5EAA20,field
80744562,58,10,10,images/2026/01/21/latrinidad_balili_bsuback_20260121_023950_80744562.jpg,1080,1080,1080p,2026-01-21T02:39:50.747Z,16.452523,120.591464,1360,6,3.0,1,57,5,72,La Trinidad,Balili,BSU Back,broccoli,20.3,55,,TECNO_TECNO_CM8_5EAA20,field
30411e76,59,1,10,images/2026/01/21/latrinidad_balili_bsuback_20260121_024008_30411e76.jpg,1080,1080,1080p,2026-01-21T02:40:08.935Z,16.452503,120.591521,1363,17,3.1,1,28,3,231,La Trinidad,Balili,BSU Back,broccoli,20.3,55,,TECNO_TECNO_CM8_5EAA20,field
381cd1ca,59,2,10,images/2026/01/21/latrinidad_balili_bsuback_20260121_024013_381cd1ca.jpg,1080,1080,1080p,2026-01-21T02:40:13.916Z,16.452503,120.591521,1363,17,3.1,1,25,3,232,La Trinidad,Balili,BSU Back,broccoli,20.3,55,,TECNO_TECNO_CM8_5EAA20,field
64c8391d,59,3,10,images/2026/01/21/latrinidad_balili_bsuback_20260121_024019_64c8391d.jpg,1080,1080,1080p,2026-01-21T02:40:19.118Z,16.452503,120.591521,1363,17,3.1,1,13,15,191,La Trinidad,Balili,BSU Back,broccoli,20.3,55,,TECNO_TECNO_CM8_5EAA20,field
07120893,59,4,10,images/2026/01/21/latrinidad_balili_bsuback_20260121_024024_07120893.jpg,1080,1080,1080p,2026-01-21T02:40:24.543Z,16.452503,120.591521,1363,17,3.1,1,9,15,190,La Trinidad,Balili,BSU Back,broccoli,20.3,55,,TECNO_TECNO_CM8_5EAA20,field
c8ac668c,59,5,10,images/2026/01/21/latrinidad_balili_bsuback_20260121_024029_c8ac668c.jpg,1080,1080,1080p,2026-01-21T02:40:29.628Z,16.452503,120.591521,1363,17,3.1,1,8,14,190,La Trinidad,Balili,BSU Back,broccoli,20.3,55,,TECNO_TECNO_CM8_5EAA20,field
0d303873,59,6,10,images/2026/01/21/latrinidad_balili_bsuback_20260121_024034_0d303873.jpg,1080,1080,1080p,2026-01-21T02:40:34.970Z,16.452503,120.591521,1363,17,3.1,1,3,-27,172,La Trinidad,Balili,BSU Back,broccoli,20.3,55,,TECNO_TECNO_CM8_5EAA20,field
4bb96ba3,59,7,10,images/2026/01/21/latrinidad_balili_bsuback_20260121_024040_4bb96ba3.jpg,1080,1080,1080p,2026-01-21T02:40:40.216Z,16.452503,120.591521,1363,17,3.1,1,6,-20,171,La Trinidad,Balili,BSU Back,broccoli,20.3,55,,TECNO_TECNO_CM8_5EAA20,field
5ea0678b,59,8,10,images/2026/01/21/latrinidad_balili_bsuback_20260121_024050_5ea0678b.jpg,1080,1080,1080p,2026-01-21T02:40:50.515Z,16.452503,120.591521,1363,17,3.1,1,-1,-6,176,La Trinidad,Balili,BSU Back,broccoli,20.3,55,,TECNO_TECNO_CM8_5EAA20,field
17226b3f,59,9,10,images/2026/01/21/latrinidad_balili_bsuback_20260121_024055_17226b3f.jpg,1080,1080,1080p,2026-01-21T02:40:56.001Z,16.452503,120.591521,1363,17,3.1,1,-2,-5,181,La Trinidad,Balili,BSU Back,broccoli,20.3,55,,TECNO_TECNO_CM8_5EAA20,field
c6520cdb,59,10,10,images/2026/01/21/latrinidad_balili_bsuback_20260121_024101_c6520cdb.jpg,1080,1080,1080p,2026-01-21T02:41:01.738Z,16.452503,120.591521,1363,17,3.1,1,22,-9,181,La Trinidad,Balili,BSU Back,broccoli,20.3,55,,TECNO_TECNO_CM8_5EAA20,field
5a39c3f5,60,1,10,images/2026/01/21/latrinidad_balili_bsuback_20260121_024135_5a39c3f5.jpg,1080,1080,1080p,2026-01-21T02:41:35.552Z,16.452519,120.591603,1360,5,3.0,1,29,4,98,La Trinidad,Balili,BSU Back,broccoli,20.3,55,,TECNO_TECNO_CM8_5EAA20,field
931811b6,60,2,10,images/2026/01/21/latrinidad_balili_bsuback_20260121_024141_931811b6.jpg,1080,1080,1080p,2026-01-21T02:41:41.174Z,16.452519,120.591603,1360,5,3.0,1,27,1,99,La Trinidad,Balili,BSU Back,broccoli,20.3,55,,TECNO_TECNO_CM8_5EAA20,field
343568a5,60,3,10,images/2026/01/21/latrinidad_balili_bsuback_20260121_024146_343568a5.jpg,1080,1080,1080p,2026-01-21T02:41:46.667Z,16.452533,120.591617,1363,3,3.4,1,16,3,93,La Trinidad,Balili,BSU Back,broccoli,20.3,55,,TECNO_TECNO_CM8_5EAA20,field
14ff6710,60,4,10,images/2026/01/21/latrinidad_balili_bsuback_20260121_024152_14ff6710.jpg,1080,1080,1080p,2026-01-21T02:41:52.735Z,16.452533,120.591617,1363,3,3.4,1,38,-13,99,La Trinidad,Balili,BSU Back,broccoli,20.3,55,,TECNO_TECNO_CM8_5EAA20,field
61fbea3b,60,5,10,images/2026/01/21/latrinidad_balili_bsuback_20260121_024158_61fbea3b.jpg,1080,1080,1080p,2026-01-21T02:41:58.350Z,16.452533,120.591617,1363,3,3.4,1,41,-6,94,La Trinidad,Balili,BSU Back,broccoli,20.3,55,,TECNO_TECNO_CM8_5EAA20,field
d498dfc7,60,6,10,images/2026/01/21/latrinidad_balili_bsuback_20260121_024204_d498dfc7.jpg,1080,1080,1080p,2026-01-21T02:42:04.507Z,16.452533,120.591617,1363,3,3.4,1,34,-6,94,La Trinidad,Balili,BSU Back,broccoli,20.3,55,,TECNO_TECNO_CM8_5EAA20,field
11de4df9,60,7,10,images/2026/01/21/latrinidad_balili_bsuback_20260121_024210_11de4df9.jpg,1080,1080,1080p,2026-01-21T02:42:10.104Z,16.452533,120.591617,1363,3,3.4,1,-3,0,94,La Trinidad,Balili,BSU Back,broccoli,20.3,55,,TECNO_TECNO_CM8_5EAA20,field
d15dc6f1,60,8,10,images/2026/01/21/latrinidad_balili_bsuback_20260121_024215_d15dc6f1.jpg,1080,1080,1080p,2026-01-21T02:42:15.767Z,16.452533,120.591617,1363,3,3.4,1,-3,-2,95,La Trinidad,Balili,BSU Back,broccoli,20.3,55,,TECNO_TECNO_CM8_5EAA20,field
9e8cbd2e,60,9,10,images/2026/01/21/latrinidad_balili_bsuback_20260121_024221_9e8cbd2e.jpg,1080,1080,1080p,2026-01-21T02:42:21.712Z,16.452533,120.591617,1363,3,3.4,1,-4,-2,94,La Trinidad,Balili,BSU Back,broccoli,20.3,55,,TECNO_TECNO_CM8_5EAA20,field
48dd9e42,60,10,10,images/2026/01/21/latrinidad_balili_bsuback_20260121_024228_48dd9e42.jpg,1080,1080,1080p,2026-01-21T02:42:28.673Z,16.452533,120.591617,1363,3,3.4,1,24,-2,166,La Trinidad,Balili,BSU Back,broccoli,20.3,55,,TECNO_TECNO_CM8_5EAA20,field
0388824d,61,1,10,images/2026/01/21/latrinidad_balili_bsuback_20260121_024347_0388824d.jpg,1080,1080,1080p,2026-01-21T02:43:47.235Z,16.452686,120.591399,1362,17,3.0,1,9,-12,173,La Trinidad,Balili,BSU Back,broccoli,20.3,55,,TECNO_TECNO_CM8_5EAA20,field
8a0ca23c,61,2,10,images/2026/01/21/latrinidad_balili_bsuback_20260121_024353_8a0ca23c.jpg,1080,1080,1080p,2026-01-21T02:43:53.040Z,16.452676,120.591415,1363,14,3.0,1,2,4,178,La Trinidad,Balili,BSU Back,broccoli,20.3,55,,TECNO_TECNO_CM8_5EAA20,field
a490b449,61,3,10,images/2026/01/21/latrinidad_balili_bsuback_20260121_024359_a490b449.jpg,1080,1080,1080p,2026-01-21T02:43:59.171Z,16.452676,120.591415,1363,14,3.0,1,-1,5,178,La Trinidad,Balili,BSU Back,broccoli,20.3,55,,TECNO_TECNO_CM8_5EAA20,field
2eb5ac04,61,4,10,images/2026/01/21/latrinidad_balili_bsuback_20260121_024405_2eb5ac04.jpg,1080,1080,1080p,2026-01-21T02:44:05.508Z,16.452676,120.591415,1363,14,3.0,1,6,-38,0,La Trinidad,Balili,BSU Back,broccoli,20.3,55,,TECNO_TECNO_CM8_5EAA20,field
f45177aa,61,5,10,images/2026/01/21/latrinidad_balili_bsuback_20260121_024411_f45177aa.jpg,1080,1080,1080p,2026-01-21T02:44:11.439Z,16.452676,120.591415,1363,14,3.0,1,5,-35,358,La Trinidad,Balili,BSU Back,broccoli,20.3,55,,TECNO_TECNO_CM8_5EAA20,field
fe61f8c3,61,6,10,images/2026/01/21/latrinidad_balili_bsuback_20260121_024417_fe61f8c3.jpg,1080,1080,1080p,2026-01-21T02:44:17.592Z,16.452676,120.591415,1363,14,3.0,1,12,40,261,La Trinidad,Balili,BSU Back,broccoli,20.3,55,,TECNO_TECNO_CM8_5EAA20,field
f6c517c6,61,7,10,images/2026/01/21/latrinidad_balili_bsuback_20260121_024439_f6c517c6.jpg,1080,1080,1080p,2026-01-21T02:44:39.321Z,16.452676,120.591415,1363,14,3.0,1,12,4,276,La Trinidad,Balili,BSU Back,broccoli,20.3,55,,TECNO_TECNO_CM8_5EAA20,field
79136944,61,8,10,images/2026/01/21/latrinidad_balili_bsuback_20260121_024445_79136944.jpg,1080,1080,1080p,2026-01-21T02:44:45.255Z,16.452676,120.591415,1363,14,3.0,1,8,3,277,La Trinidad,Balili,BSU Back,broccoli,20.3,55,,TECNO_TECNO_CM8_5EAA20,field
7431fee1,61,9,10,images/2026/01/21/latrinidad_balili_bsuback_20260121_024451_7431fee1.jpg,1080,1080,1080p,2026-01-21T02:44:51.826Z,16.452676,120.591415,1363,14,3.0,1,21,44,259,La Trinidad,Balili,BSU Back,broccoli,20.3,55,,TECNO_TECNO_CM8_5EAA20,field
500f3641,61,10,10,images/2026/01/21/latrinidad_balili_bsuback_20260121_024458_500f3641.jpg,1080,1080,1080p,2026-01-21T02:44:58.080Z,16.452676,120.591415,1363,14,3.0,1,-13,6,282,La Trinidad,Balili,BSU Back,broccoli,20.3,55,,TECNO_TECNO_CM8_5EAA20,field
f1ba6a74,62,1,10,images/2026/01/21/latrinidad_balili_bsuback_20260121_024511_f1ba6a74.jpg,1080,1080,1080p,2026-01-21T02:45:11.077Z,16.452659,120.591422,1358,10,4.1,1,30,-6,290,La Trinidad,Balili,BSU Back,broccoli,20.3,55,,TECNO_TECNO_CM8_5EAA20,field
d120bed8,62,2,10,images/2026/01/21/latrinidad_balili_bsuback_20260121_024517_d120bed8.jpg,1080,1080,1080p,2026-01-21T02:45:17.262Z,16.452650,120.591452,1358,10,4.0,1,21,33,270,La Trinidad,Balili,BSU Back,broccoli,20.3,55,,TECNO_TECNO_CM8_5EAA20,field
89f76c1f,62,3,10,images/2026/01/21/latrinidad_balili_bsuback_20260121_024523_89f76c1f.jpg,1080,1080,1080p,2026-01-21T02:45:23.581Z,16.452650,120.591452,1358,10,4.0,1,9,-28,295,La Trinidad,Balili,BSU Back,broccoli,20.3,55,,TECNO_TECNO_CM8_5EAA20,field
465ad46c,62,4,10,images/2026/01/21/latrinidad_balili_bsuback_20260121_024530_465ad46c.jpg,1080,1080,1080p,2026-01-21T02:45:30.586Z,16.452650,120.591452,1358,10,4.0,1,19,1,285,La Trinidad,Balili,BSU Back,broccoli,20.3,55,,TECNO_TECNO_CM8_5EAA20,field
0061a18d,62,5,10,images/2026/01/21/latrinidad_balili_bsuback_20260121_024536_0061a18d.jpg,1080,1080,1080p,2026-01-21T02:45:36.771Z,16.452650,120.591452,1358,10,4.0,1,11,1,285,La Trinidad,Balili,BSU Back,broccoli,20.3,55,,TECNO_TECNO_CM8_5EAA20,field
93f2be85,62,6,10,images/2026/01/21/latrinidad_balili_bsuback_20260121_024542_93f2be85.jpg,1080,1080,1080p,2026-01-21T02:45:43.015Z,16.452650,120.591452,1358,10,4.0,1,8,-1,285,La Trinidad,Balili,BSU Back,broccoli,20.3,55,,TECNO_TECNO_CM8_5EAA20,field
a8fc5f5d,62,7,10,images/2026/01/21/latrinidad_balili_bsuback_20260121_024549_a8fc5f5d.jpg,1080,1080,1080p,2026-01-21T02:45:49.345Z,16.452632,120.591449,1359,12,1.1,1,7,1,283,La Trinidad,Balili,BSU Back,broccoli,20.3,55,,TECNO_TECNO_CM8_5EAA20,field
951e4653,62,8,10,images/2026/01/21/latrinidad_balili_bsuback_20260121_024557_951e4653.jpg,1080,1080,1080p,2026-01-21T02:45:57.103Z,16.452632,120.591449,1359,12,1.1,1,-16,-27,194,La Trinidad,Balili,BSU Back,broccoli,20.3,55,,TECNO_TECNO_CM8_5EAA20,field
a2264737,62,9,10,images/2026/01/21/latrinidad_balili_bsuback_20260121_024603_a2264737.jpg,1080,1080,1080p,2026-01-21T02:46:03.484Z,16.452632,120.591449,1359,12,1.1,1,-14,-20,190,La Trinidad,Balili,BSU Back,broccoli,20.3,55,,TECNO_TECNO_CM8_5EAA20,field
e69347d6,62,10,10,images/2026/01/21/latrinidad_balili_bsuback_20260121_024610_e69347d6.jpg,1080,1080,1080p,2026-01-21T02:46:10.297Z,16.452632,120.591449,1359,12,1.1,1,-13,-4,208,La Trinidad,Balili,BSU Back,broccoli,20.3,55,,TECNO_TECNO_CM8_5EAA20,field
4563b2b8,63,1,10,images/2026/01/21/latrinidad_balili_bsuback_20260121_024623_4563b2b8.jpg,1080,1080,1080p,2026-01-21T02:46:23.748Z,16.452616,120.591536,1363,7,3.4,1,27,8,271,La Trinidad,Balili,BSU Back,broccoli,20.3,55,,TECNO_TECNO_CM8_5EAA20,field
38463b5e,63,2,10,images/2026/01/21/latrinidad_balili_bsuback_20260121_024630_38463b5e.jpg,1080,1080,1080p,2026-01-21T02:46:30.363Z,16.452616,120.591536,1363,7,3.4,1,26,4,273,La Trinidad,Balili,BSU Back,broccoli,20.3,55,,TECNO_TECNO_CM8_5EAA20,field
ca6682cd,63,3,10,images/2026/01/21/latrinidad_balili_bsuback_20260121_024649_ca6682cd.jpg,1080,1080,1080p,2026-01-21T02:46:49.868Z,16.452611,120.591559,1363,8,6.9,1,23,9,272,La Trinidad,Balili,BSU Back,broccoli,20.3,55,,TECNO_TECNO_CM8_5EAA20,field
e1372cd9,63,4,10,images/2026/01/21/latrinidad_balili_bsuback_20260121_024703_e1372cd9.jpg,1080,1080,1080p,2026-01-21T02:47:03.119Z,16.452609,120.591559,1363,8,15.6,1,7,5,271,La Trinidad,Balili,BSU Back,broccoli,20.3,55,,TECNO_TECNO_CM8_5EAA20,field
c95bce27,63,5,10,images/2026/01/21/latrinidad_balili_bsuback_20260121_024705_c95bce27.jpg,1080,1080,1080p,2026-01-21T02:47:05.886Z,16.452620,120.591539,1363,8,1.9,1,5,5,272,La Trinidad,Balili,BSU Back,broccoli,20.3,55,,TECNO_TECNO_CM8_5EAA20,field
f1b5b481,63,6,10,images/2026/01/21/latrinidad_balili_bsuback_20260121_024708_f1b5b481.jpg,1080,1080,1080p,2026-01-21T02:47:08.433Z,16.452620,120.591539,1363,8,1.9,1,6,5,272,La Trinidad,Balili,BSU Back,broccoli,20.3,55,,TECNO_TECNO_CM8_5EAA20,field
bebbdfd4,63,7,10,images/2026/01/21/latrinidad_balili_bsuback_20260121_024714_bebbdfd4.jpg,1080,1080,1080p,2026-01-21T02:47:14.902Z,16.452620,120.591539,1363,8,1.9,1,27,0,83,La Trinidad,Balili,BSU Back,broccoli,20.3,55,,TECNO_TECNO_CM8_5EAA20,field
70d88553,63,8,10,images/2026/01/21/latrinidad_balili_bsuback_20260121_024717_70d88553.jpg,1080,1080,1080p,2026-01-21T02:47:17.677Z,16.452620,120.591539,1363,8,1.9,1,28,-1,83,La Trinidad,Balili,BSU Back,broccoli,20.3,55,,TECNO_TECNO_CM8_5EAA20,field
35b2a021,63,9,10,images/2026/01/21/latrinidad_balili_bsuback_20260121_024720_35b2a021.jpg,1080,1080,1080p,2026-01-21T02:47:20.314Z,16.452620,120.591539,1363,8,1.9,1,30,0,84,La Trinidad,Balili,BSU Back,broccoli,20.3,55,,TECNO_TECNO_CM8_5EAA20,field
1a6632ae,63,10,10,images/2026/01/21/latrinidad_balili_bsuback_20260121_024724_1a6632ae.jpg,1080,1080,1080p,2026-01-21T02:47:24.307Z,16.452620,120.591539,1363,8,1.9,1,12,1,84,La Trinidad,Balili,BSU Back,broccoli,20.3,55,,TECNO_TECNO_CM8_5EAA20,field
5366202f,64,1,10,images/2026/01/21/latrinidad_balili_bsuback_20260121_024738_5366202f.jpg,1080,1080,1080p,2026-01-21T02:47:38.084Z,16.452624,120.591600,1363,4,3.5,1,1,-5,212,La Trinidad,Balili,BSU Back,broccoli,20.3,55,,TECNO_TECNO_CM8_5EAA20,field
11de7d51,64,2,10,images/2026/01/21/latrinidad_balili_bsuback_20260121_024741_11de7d51.jpg,1080,1080,1080p,2026-01-21T02:47:41.295Z,16.452624,120.591600,1363,4,3.5,1,-1,-3,212,La Trinidad,Balili,BSU Back,broccoli,20.3,55,,TECNO_TECNO_CM8_5EAA20,field
e0c2b357,64,3,10,images/2026/01/21/latrinidad_balili_bsuback_20260121_024743_e0c2b357.jpg,1080,1080,1080p,2026-01-21T02:47:43.988Z,16.452624,120.591600,1363,4,3.5,1,-3,-3,211,La Trinidad,Balili,BSU Back,broccoli,20.3,55,,TECNO_TECNO_CM8_5EAA20,field
fc186faf,64,4,10,images/2026/01/21/latrinidad_balili_bsuback_20260121_024751_fc186faf.jpg,1080,1080,1080p,2026-01-21T02:47:51.829Z,16.452632,120.591583,1363,11,3.0,1,52,-4,9,La Trinidad,Balili,BSU Back,broccoli,20.3,55,,TECNO_TECNO_CM8_5EAA20,field
56c637b9,64,5,10,images/2026/01/21/latrinidad_balili_bsuback_20260121_024754_56c637b9.jpg,1080,1080,1080p,2026-01-21T02:47:54.438Z,16.452632,120.591583,1363,11,3.0,1,53,-2,7,La Trinidad,Balili,BSU Back,broccoli,20.3,55,,TECNO_TECNO_CM8_5EAA20,field
aea410fb,64,6,10,images/2026/01/21/latrinidad_balili_bsuback_20260121_024758_aea410fb.jpg,1080,1080,1080p,2026-01-21T02:47:58.383Z,16.452632,120.591583,1363,11,3.0,1,15,-36,35,La Trinidad,Balili,BSU Back,broccoli,20.3,55,,TECNO_TECNO_CM8_5EAA20,field
40f6ff9b,64,7,10,images/2026/01/21/latrinidad_balili_bsuback_20260121_024801_40f6ff9b.jpg,1080,1080,1080p,2026-01-21T02:48:01.446Z,16.452632,120.591583,1363,11,3.0,1,14,-33,33,La Trinidad,Balili,BSU Back,broccoli,20.3,55,,TECNO_TECNO_CM8_5EAA20,field
437ad45c,64,8,10,images/2026/01/21/latrinidad_balili_bsuback_20260121_024809_437ad45c.jpg,1080,1080,1080p,2026-01-21T02:48:09.218Z,16.452632,120.591583,1363,11,3.0,1,2,-30,214,La Trinidad,Balili,BSU Back,broccoli,20.3,55,,TECNO_TECNO_CM8_5EAA20,field
096f9dfb,64,9,10,images/2026/01/21/latrinidad_balili_bsuback_20260121_024812_096f9dfb.jpg,1080,1080,1080p,2026-01-21T02:48:12.084Z,16.452632,120.591583,1363,11,3.0,1,-1,-30,216,La Trinidad,Balili,BSU Back,broccoli,20.3,55,,TECNO_TECNO_CM8_5EAA20,field
1ab2786d,64,10,10,images/2026/01/21/latrinidad_balili_bsuback_20260121_024815_1ab2786d.jpg,1080,1080,1080p,2026-01-21T02:48:15.251Z,16.452632,120.591583,1363,11,3.0,1,1,-4,210,La Trinidad,Balili,BSU Back,broccoli,20.3,55,,TECNO_TECNO_CM8_5EAA20,field
2d1dbb1d,65,1,10,images/2026/01/21/latrinidad_balili_bsuback_20260121_024903_2d1dbb1d.jpg,1080,1080,1080p,2026-01-21T02:49:03.595Z,16.452688,120.591701,1360,6,3.0,1,30,-4,84,La Trinidad,Balili,BSU Back,pechay,20.3,55,,TECNO_TECNO_CM8_5EAA20,field
0796a715,65,2,10,images/2026/01/21/latrinidad_balili_bsuback_20260121_024906_0796a715.jpg,1080,1080,1080p,2026-01-21T02:49:06.519Z,16.452688,120.591701,1360,6,3.0,1,28,-5,85,La Trinidad,Balili,BSU Back,pechay,20.3,55,,TECNO_TECNO_CM8_5EAA20,field
a33f8079,65,3,10,images/2026/01/21/latrinidad_balili_bsuback_20260121_024911_a33f8079.jpg,1080,1080,1080p,2026-01-21T02:49:11.953Z,16.452688,120.591701,1360,6,3.0,1,31,-14,87,La Trinidad,Balili,BSU Back,pechay,20.3,55,,TECNO_TECNO_CM8_5EAA20,field
f078e891,65,4,10,images/2026/01/21/latrinidad_balili_bsuback_20260121_024915_f078e891.jpg,1080,1080,1080p,2026-01-21T02:49:15.854Z,16.452688,120.591701,1360,6,3.0,1,16,-1,85,La Trinidad,Balili,BSU Back,pechay,20.3,55,,TECNO_TECNO_CM8_5EAA20,field
6e5a0026,65,5,10,images/2026/01/21/latrinidad_balili_bsuback_20260121_024919_6e5a0026.jpg,1080,1080,1080p,2026-01-21T02:49:19.642Z,16.452688,120.591701,1360,6,3.0,1,15,46,71,La Trinidad,Balili,BSU Back,pechay,20.3,55,,TECNO_TECNO_CM8_5EAA20,field
bcd2502a,65,6,10,images/2026/01/21/latrinidad_balili_bsuback_20260121_024922_bcd2502a.jpg,1080,1080,1080p,2026-01-21T02:49:22.923Z,16.452688,120.591701,1360,6,3.0,1,21,20,81,La Trinidad,Balili,BSU Back,pechay,20.3,55,,TECNO_TECNO_CM8_5EAA20,field
3cbbe441,65,7,10,images/2026/01/21/latrinidad_balili_bsuback_20260121_024925_3cbbe441.jpg,1080,1080,1080p,2026-01-21T02:49:25.803Z,16.452688,120.591701,1360,6,3.0,1,34,7,87,La Trinidad,Balili,BSU Back,pechay,20.3,55,,TECNO_TECNO_CM8_5EAA20,field
693f0a2f,65,8,10,images/2026/01/21/latrinidad_balili_bsuback_20260121_024928_693f0a2f.jpg,1080,1080,1080p,2026-01-21T02:49:28.894Z,16.452688,120.591701,1360,6,3.0,1,19,1,91,La Trinidad,Balili,BSU Back,pechay,20.3,55,,TECNO_TECNO_CM8_5EAA20,field
72653ab7,65,9,10,images/2026/01/21/latrinidad_balili_bsuback_20260121_024933_72653ab7.jpg,1080,1080,1080p,2026-01-21T02:49:33.399Z,16.452688,120.591701,1360,6,3.0,1,25,-10,321,La Trinidad,Balili,BSU Back,pechay,20.3,55,,TECNO_TECNO_CM8_5EAA20,field
5fe94882,65,10,10,images/2026/01/21/latrinidad_balili_bsuback_20260121_024936_5fe94882.jpg,1080,1080,1080p,2026-01-21T02:49:36.376Z,16.452688,120.591701,1360,6,3.0,1,26,-10,319,La Trinidad,Balili,BSU Back,pechay,20.3,55,,TECNO_TECNO_CM8_5EAA20,field
