uuid,spot_number,shot_number,shots_in_spot,image_filename,image_width,image_height,image_quality,capture_datetime,latitude,longitude,altitude_m,altitude_accuracy_m,gps_accuracy_m,gps_reading_count,camera_pitch,camera_roll,camera_heading,municipality,barangay,farm_name,crops,temperature_c,humidity_percent,notes,device_id,capture_mode
f48976a7,38,1,5,images/atok/paoay/no_farm/cabbage/atok_paoay_20260213_015954_f48976a7.jpg,1920,1080,1080p,2026-02-13T01:59:54.173Z,16.453434,120.590741,1360,6,34.5,1,30,-3,336,Atok,Paoay,,cabbage,22.7,49,,samsung_SM-A546E_DF7DBC,field
ab38c829,38,2,5,images/atok/paoay/no_farm/cabbage/atok_paoay_20260213_020002_ab38c829.jpg,1920,1080,1080p,2026-02-13T02:00:02.470Z,16.453434,120.590741,1360,6,34.5,1,29,-6,335,Atok,Paoay,,cabbage,22.7,49,,samsung_SM-A546E_DF7DBC,field
c98f1a67,38,3,5,images/atok/paoay/no_farm/cabbage/atok_paoay_20260213_020011_c98f1a67.jpg,1920,1080,1080p,2026-02-13T02:00:11.106Z,16.453435,120.591264,1360,5,32.0,1,21,-10,338,Atok,Paoay,,cabbage,22.7,49,,samsung_SM-A546E_DF7DBC,field
fe55e775,38,4,5,images/atok/paoay/no_farm/cabbage/atok_paoay_20260213_020020_fe55e775.jpg,1920,1080,1080p,2026-02-13T02:00:20.121Z,16.453162,120.590981,1360,4,40.1,1,29,-12,339,Atok,Paoay,,cabbage,22.7,49,,samsung_SM-A546E_DF7DBC,field
87b1e9aa,38,5,5,images/atok/paoay/no_farm/cabbage/atok_paoay_20260213_020030_87b1e9aa.jpg,1920,1080,1080p,2026-02-13T02:00:30.457Z,16.453454,120.590980,1358,5,32.5,1,17,-12,51,Atok,Paoay,,cabbage,22.7,49,,samsung_SM-A546E_DF7DBC,field
661a2fcd,40,1,5,images/atok/paoay/no_farm/cabbage/atok_paoay_20260213_015829_661a2fcd.jpg,1920,1080,1080p,2026-02-13T01:58:29.238Z,16.453163,120.590850,1359,5,53.5,1,30,0,350,Atok,Paoay,,cabbage,22.7,49,,samsung_SM-A546E_DF7DBC,field
80198b48,40,2,5,images/atok/paoay/no_farm/cabbage/atok_paoay_20260213_015837_80198b48.jpg,1920,1080,1080p,2026-02-13T01:58:37.961Z,16.453424,120.591064,1360,65,342.8,1,18,1,351,Atok,Paoay,,cabbage,22.7,49,,samsung_SM-A546E_DF7DBC,field
0725db68,40,3,5,images/atok/paoay/no_farm/cabbage/atok_paoay_20260213_015845_0725db68.jpg,1920,1080,1080p,2026-02-13T01:58:46.002Z,16.453425,120.591014,1360,5,174.7,1,9,0,352,Atok,Paoay,,cabbage,22.7,49,,samsung_SM-A546E_DF7DBC,field
6740aa01,40,4,5,images/atok/paoay/no_farm/cabbage/atok_paoay_20260213_015854_6740aa01.jpg,1920,1080,1080p,2026-02-13T01:58:54.446Z,16.453598,120.590729,1360,5,38.5,1,5,1,2,Atok,Paoay,,cabbage,22.7,49,,samsung_SM-A546E_DF7DBC,field
3d334975,40,5,5,images/atok/paoay/no_farm/cabbage/atok_paoay_20260213_015906_3d334975.jpg,1920,1080,1080p,2026-02-13T01:59:06.262Z,16.453204,120.590931,1360,5,51.8,1,31,2,304,Atok,Paoay,,cabbage,22.7,49,,samsung_SM-A546E_DF7DBC,field
26d6af69,41,1,5,images/atok/paoay/no_farm/cabbage/atok_paoay_20260213_020335_26d6af69.jpg,1920,1080,1080p,2026-02-13T02:03:35.687Z,16.453436,120.590918,1360,7,14.5,1,34,0,341,Atok,Paoay,,cabbage,22.7,49,,samsung_SM-A546E_DF7DBC,field
f51822ab,41,2,5,images/atok/paoay/no_farm/cabbage/atok_paoay_20260213_020343_f51822ab.jpg,1920,1080,1080p,2026-02-13T02:03:43.343Z,16.453441,120.590898,1360,9,15.3,1,22,1,340,Atok,Paoay,,cabbage,22.7,49,,samsung_SM-A546E_DF7DBC,field
79a719e8,41,3,5,images/atok/paoay/no_farm/cabbage/atok_paoay_20260213_020352_79a719e8.jpg,1920,1080,1080p,2026-02-13T02:03:52.343Z,16.453446,120.590835,1358,4,49.3,1,21,7,347,Atok,Paoay,,cabbage,22.7,49,,samsung_SM-A546E_DF7DBC,field
b9538afa,41,4,5,images/atok/paoay/no_farm/cabbage/atok_paoay_20260213_020402_b9538afa.jpg,1920,1080,1080p,2026-02-13T02:04:02.211Z,16.453417,120.590896,1360,4,25.5,1,16,1,57,Atok,Paoay,,cabbage,22.7,49,,samsung_SM-A546E_DF7DBC,field
2b980e38,41,5,5,images/atok/paoay/no_farm/cabbage/atok_paoay_20260213_020410_2b980e38.jpg,1920,1080,1080p,2026-02-13T02:04:10.992Z,16.453381,120.590886,1358,4,48.8,1,33,4,318,Atok,Paoay,,cabbage,22.7,49,,samsung_SM-A546E_DF7DBC,field
b98b6be8,42,1,5,images/atok/paoay/no_farm/cabbage/atok_paoay_20260213_020455_b98b6be8.jpg,1920,1080,1080p,2026-02-13T02:04:55.622Z,16.453403,120.590931,1360,10,14.9,1,28,-1,345,Atok,Paoay,,cabbage,22.7,49,,samsung_SM-A546E_DF7DBC,field
03640891,42,2,5,images/atok/paoay/no_farm/cabbage/atok_paoay_20260213_020503_03640891.jpg,1920,1080,1080p,2026-02-13T02:05:03.314Z,16.453403,120.590931,1360,10,14.9,1,17,-1,347,Atok,Paoay,,cabbage,22.7,49,,samsung_SM-A546E_DF7DBC,field
3552c9db,42,3,5,images/atok/paoay/no_farm/cabbage/atok_paoay_20260213_020511_3552c9db.jpg,1920,1080,1080p,2026-02-13T02:05:11.985Z,16.453353,120.590935,1360,4,35.1,1,9,2,349,Atok,Paoay,,cabbage,22.7,49,,samsung_SM-A546E_DF7DBC,field
4c7148da,42,4,5,images/atok/paoay/no_farm/cabbage/atok_paoay_20260213_020521_4c7148da.jpg,1920,1080,1080p,2026-02-13T02:05:21.254Z,16.453395,120.590885,1358,6,314.8,1,19,-1,354,Atok,Paoay,,cabbage,22.7,49,,samsung_SM-A546E_DF7DBC,field
5bbc7c15,42,5,5,images/atok/paoay/no_farm/cabbage/atok_paoay_20260213_020530_5bbc7c15.jpg,1920,1080,1080p,2026-02-13T02:05:30.394Z,16.453407,120.590843,1358,6,48.5,1,9,0,56,Atok,Paoay,,cabbage,22.7,49,,samsung_SM-A546E_DF7DBC,field
1dac1f7d,44,1,5,images/atok/paoay/no_farm/cabbage/atok_paoay_20260213_023514_1dac1f7d.jpg,1920,1080,1080p,2026-02-13T02:35:14.607Z,16.453367,120.590932,1360,7,14.5,1,38,-1,348,Atok,Paoay,,cabbage,20.2,66,,samsung_SM-A546E_DF7DBC,field
4e636b99,44,2,5,images/atok/paoay/no_farm/cabbage/atok_paoay_20260213_023523_4e636b99.jpg,1920,1080,1080p,2026-02-13T02:35:23.469Z,16.453367,120.590932,1360,7,14.5,1,28,0,348,Atok,Paoay,,cabbage,20.2,66,,samsung_SM-A546E_DF7DBC,field
d1b00762,44,3,5,images/atok/paoay/no_farm/cabbage/atok_paoay_20260213_023533_d1b00762.jpg,1920,1080,1080p,2026-02-13T02:35:33.241Z,16.453375,120.590949,1359,9,41.5,1,19,6,350,Atok,Paoay,,cabbage,20.2,66,,samsung_SM-A546E_DF7DBC,field
17588bad,44,4,5,images/atok/paoay/no_farm/cabbage/atok_paoay_20260213_023542_17588bad.jpg,1920,1080,1080p,2026-02-13T02:35:42.953Z,16.453375,120.590949,1359,9,41.5,1,20,2,351,Atok,Paoay,,cabbage,20.2,66,,samsung_SM-A546E_DF7DBC,field
644396c2,44,5,5,images/atok/paoay/no_farm/cabbage/atok_paoay_20260213_023552_644396c2.jpg,1920,1080,1080p,2026-02-13T02:35:52.752Z,16.453447,120.590868,1360,4,46.2,1,35,-1,321,Atok,Paoay,,cabbage,20.2,66,,samsung_SM-A546E_DF7DBC,field
f10ad6bb,45,1,5,images/atok/paoay/no_farm/cabbage/atok_paoay_20260213_023349_f10ad6bb.jpg,1920,1080,1080p,2026-02-13T02:33:49.129Z,16.453432,120.590843,1360,6,17.2,1,37,-1,351,Atok,Paoay,,cabbage,20.2,66,,samsung_SM-A546E_DF7DBC,field
01fed1c8,45,2,5,images/atok/paoay/no_farm/cabbage/atok_paoay_20260213_023358_01fed1c8.jpg,1920,1080,1080p,2026-02-13T02:33:58.956Z,16.453427,120.590871,1359,5,28.5,1,24,-3,352,Atok,Paoay,,cabbage,20.2,66,,samsung_SM-A546E_DF7DBC,field
f2d18c40,45,3,5,images/atok/paoay/no_farm/cabbage/atok_paoay_20260213_023407_f2d18c40.jpg,1920,1080,1080p,2026-02-13T02:34:07.943Z,16.453296,120.590826,1359,5,16.0,1,17,0,352,Atok,Paoay,,cabbage,20.2,66,,samsung_SM-A546E_DF7DBC,field
5e10ca0a,45,4,5,images/atok/paoay/no_farm/cabbage/atok_paoay_20260213_023417_5e10ca0a.jpg,1920,1080,1080p,2026-02-13T02:34:18.024Z,16.453322,120.590847,1359,4,32.0,1,21,4,329,Atok,Paoay,,cabbage,20.2,66,,samsung_SM-A546E_DF7DBC,field
4d7eb0eb,45,5,5,images/atok/paoay/no_farm/cabbage/atok_paoay_20260213_023427_4d7eb0eb.jpg,1920,1080,1080p,2026-02-13T02:34:27.815Z,16.453223,120.591008,1360,3,36.1,1,21,10,350,Atok,Paoay,,cabbage,20.2,66,,samsung_SM-A546E_DF7DBC,field
3229782d,46,1,5,images/atok/paoay/no_farm/lettuce/atok_paoay_20260213_021205_3229782d.jpg,1920,1080,1080p,2026-02-13T02:12:05.785Z,16.453387,120.590953,1358,9,30.8,1,29,-3,346,Atok,Paoay,,lettuce,19.7,69,,samsung_SM-A546E_DF7DBC,field
e43f177c,46,2,5,images/atok/paoay/no_farm/lettuce/atok_paoay_20260213_021213_e43f177c.jpg,1920,1080,1080p,2026-02-13T02:12:13.852Z,16.453367,120.590974,1360,19,13.9,1,22,-2,355,Atok,Paoay,,lettuce,19.7,69,,samsung_SM-A546E_DF7DBC,field
829f2225,46,3,5,images/atok/paoay/no_farm/lettuce/atok_paoay_20260213_021222_829f2225.jpg,1920,1080,1080p,2026-02-13T02:12:22.225Z,16.453367,120.590974,1360,19,13.9,1,9,-1,357,Atok,Paoay,,lettuce,19.7,69,,samsung_SM-A546E_DF7DBC,field
92e60be4,46,4,5,images/atok/paoay/no_farm/lettuce/atok_paoay_20260213_021231_92e60be4.jpg,1920,1080,1080p,2026-02-13T02:12:31.852Z,16.453379,120.590920,1360,9,44.0,1,17,-6,356,Atok,Paoay,,lettuce,19.7,69,,samsung_SM-A546E_DF7DBC,field
ff096ba6,46,5,5,images/atok/paoay/no_farm/lettuce/atok_paoay_20260213_021241_ff096ba6.jpg,1920,1080,1080p,2026-02-13T02:12:41.254Z,16.453415,120.590887,1360,5,49.0,1,29,-1,309,Atok,Paoay,,lettuce,19.7,69,,samsung_SM-A546E_DF7DBC,field
0a9a2d7d,47,1,5,images/atok/paoay/no_farm/cabbage/atok_paoay_20260213_020613_0a9a2d7d.jpg,1920,1080,1080p,2026-02-13T02:06:13.368Z,16.453394,120.590923,1360,7,26.0,1,34,1,341,Atok,Paoay,,lettuce,19.7,69,,samsung_SM-A546E_DF7DBC,field
b7c89e2f,47,2,5,images/atok/paoay/no_farm/cabbage/atok_paoay_20260213_020622_b7c89e2f.jpg,1920,1080,1080p,2026-02-13T02:06:22.916Z,16.453383,120.590896,1360,6,30.4,1,18,-1,342,Atok,Paoay,,lettuce,19.7,69,,samsung_SM-A546E_DF7DBC,field
6a9dcc8c,47,3,5,images/atok/paoay/no_farm/cabbage/atok_paoay_20260213_020631_6a9dcc8c.jpg,1920,1080,1080p,2026-02-13T02:06:31.864Z,16.453383,120.590896,1360,6,30.4,1,7,0,347,Atok,Paoay,,lettuce,19.7,69,,samsung_SM-A546E_DF7DBC,field
a830d7e3,47,4,5,images/atok/paoay/no_farm/cabbage/atok_paoay_20260213_020640_a830d7e3.jpg,1920,1080,1080p,2026-02-13T02:06:40.660Z,16.453440,120.590908,1358,19,42.5,1,4,-2,351,Atok,Paoay,,lettuce,19.7,69,,samsung_SM-A546E_DF7DBC,field
fd2c258e,47,5,5,images/atok/paoay/no_farm/cabbage/atok_paoay_20260213_020649_fd2c258e.jpg,1920,1080,1080p,2026-02-13T02:06:49.511Z,16.453350,120.590980,1360,8,52.4,1,32,-4,311,Atok,Paoay,,lettuce,19.7,69,,samsung_SM-A546E_DF7DBC,field
208fcd82,48,1,5,images/atok/paoay/no_farm/lettuce/atok_paoay_20260213_023057_208fcd82.jpg,1920,1080,1080p,2026-02-13T02:30:58.050Z,16.453409,120.590841,1359,19,16.7,1,39,-1,359,Atok,Paoay,,lettuce,,,,samsung_SM-A546E_DF7DBC,field
0eb894f9,48,2,5,images/atok/paoay/no_farm/lettuce/atok_paoay_20260213_023106_0eb894f9.jpg,1920,1080,1080p,2026-02-13T02:31:06.231Z,16.453409,120.590841,1359,19,16.7,1,28,0,357,Atok,Paoay,,lettuce,,,,samsung_SM-A546E_DF7DBC,field
3463aec1,48,3,5,images/atok/paoay/no_farm/lettuce/atok_paoay_20260213_023114_3463aec1.jpg,1920,1080,1080p,2026-02-13T02:31:14.809Z,16.453409,120.590841,1359,19,16.7,1,20,1,359,Atok,Paoay,,lettuce,,,,samsung_SM-A546E_DF7DBC,field
7314ab18,48,4,5,images/atok/paoay/no_farm/lettuce/atok_paoay_20260213_023123_7314ab18.jpg,1920,1080,1080p,2026-02-13T02:31:23.696Z,16.453350,120.590914,1358,19,15.0,1,12,1,354,Atok,Paoay,,lettuce,,,,samsung_SM-A546E_DF7DBC,field
4376f718,48,5,5,images/atok/paoay/no_farm/lettuce/atok_paoay_20260213_023133_4376f718.jpg,1920,1080,1080p,2026-02-13T02:31:33.563Z,16.453383,120.590921,1359,4,34.0,1,40,6,318,Atok,Paoay,,lettuce,,,,samsung_SM-A546E_DF7DBC,field
f93bd21c,49,1,5,images/atok/paoay/no_farm/lettuce/atok_paoay_20260213_023215_f93bd21c.jpg,1920,1080,1080p,2026-02-13T02:32:15.527Z,16.453440,120.590865,1360,7,15.9,1,40,-1,344,Atok,Paoay,,lettuce,20.8,67,,samsung_SM-A546E_DF7DBC,field
5d483e07,49,2,5,images/atok/paoay/no_farm/lettuce/atok_paoay_20260213_023224_5d483e07.jpg,1920,1080,1080p,2026-02-13T02:32:24.319Z,16.453440,120.590865,1360,7,15.9,1,24,0,348,Atok,Paoay,,lettuce,20.8,67,,samsung_SM-A546E_DF7DBC,field
49dda065,49,3,5,images/atok/paoay/no_farm/lettuce/atok_paoay_20260213_023234_49dda065.jpg,1920,1080,1080p,2026-02-13T02:32:34.201Z,16.453400,120.590823,1359,5,26.4,1,13,2,350,Atok,Paoay,,lettuce,20.8,67,,samsung_SM-A546E_DF7DBC,field
cd177cfc,49,4,5,images/atok/paoay/no_farm/lettuce/atok_paoay_20260213_023243_cd177cfc.jpg,1920,1080,1080p,2026-02-13T02:32:43.353Z,16.453418,120.590835,1360,5,47.7,1,11,3,352,Atok,Paoay,,lettuce,20.8,67,,samsung_SM-A546E_DF7DBC,field
374edffe,49,5,5,images/atok/paoay/no_farm/lettuce/atok_paoay_20260213_023252_374edffe.jpg,1920,1080,1080p,2026-02-13T02:32:52.647Z,16.453384,120.590898,1360,5,35.5,1,39,1,314,Atok,Paoay,,lettuce,20.8,67,,samsung_SM-A546E_DF7DBC,field