uuid,spot_number,shot_number,shots_in_spot,image_filename,image_width,image_height,image_quality,capture_datetime,latitude,longitude,altitude_m,altitude_accuracy_m,gps_accuracy_m,gps_reading_count,camera_pitch,camera_roll,camera_heading,municipality,barangay,farm_name,crops,temperature_c,humidity_percent,notes,device_id,capture_mode
f84d0a5d,65,1,5,images/2026/01/21/latrinidad_balili_bsuback_20260121_063932_f84d0a5d.jpg,1080,1080,1080p,2026-01-21T06:39:32.711Z,,,,,,,2,2,204,La Trinidad,Balili,BSU Back,"cabbage,custom_chinese_cabbage",,,,TECNO_TECNO_CM8_DF2CAC,controlled
9cdf5593,65,2,5,images/2026/01/21/latrinidad_balili_bsuback_20260121_063937_9cdf5593.jpg,1080,1080,1080p,2026-01-21T06:39:37.213Z,,,,,,,16,1,206,La Trinidad,Balili,BSU Back,"cabbage,custom_chinese_cabbage",,,,TECNO_TECNO_CM8_DF2CAC,controlled
01e329ed,65,3,5,images/2026/01/21/latrinidad_balili_bsuback_20260121_063941_01e329ed.jpg,1080,1080,1080p,2026-01-21T06:39:41.751Z,,,,,,,-15,13,203,La Trinidad,Balili,BSU Back,"cabbage,custom_chinese_cabbage",,,,TECNO_TECNO_CM8_DF2CAC,controlled
b1348dd8,65,4,5,images/2026/01/21/latrinidad_balili_bsuback_20260121_063946_b1348dd8.jpg,1080,1080,1080p,2026-01-21T06:39:46.255Z,,,,,,,-5,32,205,La Trinidad,Balili,BSU Back,"cabbage,custom_chinese_cabbage",,,,TECNO_TECNO_CM8_DF2CAC,controlled
6675ff04,65,5,5,images/2026/01/21/latrinidad_balili_bsuback_20260121_063951_6675ff04.jpg,1080,1080,1080p,2026-01-21T06:39:51.318Z,,,,,,,2,-1,198,La Trinidad,Balili,BSU Back,"cabbage,custom_chinese_cabbage",,,,TECNO_TECNO_CM8_DF2CAC,controlled
ac29a57f,64,1,5,images/2026/01/21/latrinidad_balili_bsuback_20260121_064037_ac29a57f.jpg,1080,1080,1080p,2026-01-21T06:40:37.684Z,,,,,,,2,-12,203,La Trinidad,Balili,BSU Back,cabbage,,,,TECNO_TECNO_CM8_DF2CAC,controlled
6f631e86,64,2,5,images/2026/01/21/latrinidad_balili_bsuback_20260121_064042_6f631e86.jpg,1080,1080,1080p,2026-01-21T06:40:42.727Z,,,,,,,8,3,199,La Trinidad,Balili,BSU Back,cabbage,,,,TECNO_TECNO_CM8_DF2CAC,controlled
1726310d,64,3,5,images/2026/01/21/latrinidad_balili_bsuback_20260121_064053_1726310d.jpg,1080,1080,1080p,2026-01-21T06:40:53.318Z,,,,,,,-2,24,195,La Trinidad,Balili,BSU Back,cabbage,,,,TECNO_TECNO_CM8_DF2CAC,controlled
7f38948d,64,4,5,images/2026/01/21/latrinidad_balili_bsuback_20260121_064058_7f38948d.jpg,1080,1080,1080p,2026-01-21T06:40:58.475Z,,,,,,,-21,7,200,La Trinidad,Balili,BSU Back,cabbage,,,,TECNO_TECNO_CM8_DF2CAC,controlled
bc3641f0,64,5,5,images/2026/01/21/latrinidad_balili_bsuback_20260121_064104_bc3641f0.jpg,1080,1080,1080p,2026-01-21T06:41:04.841Z,,,,,,,0,-1,202,La Trinidad,Balili,BSU Back,cabbage,,,,TECNO_TECNO_CM8_DF2CAC,controlled
b222d1e0,32,1,5,images/2026/01/21/latrinidad_balili_bsuback_20260121_064145_b222d1e0.jpg,1080,1080,1080p,2026-01-21T06:41:45.036Z,,,,,,,4,-1,224,La Trinidad,Balili,BSU Back,tomato,,,,TECNO_TECNO_CM8_DF2CAC,controlled
a9cd6677,32,2,5,images/2026/01/21/latrinidad_balili_bsuback_20260121_064150_a9cd6677.jpg,1080,1080,1080p,2026-01-21T06:41:50.059Z,,,,,,,18,9,210,La Trinidad,Balili,BSU Back,tomato,,,,TECNO_TECNO_CM8_DF2CAC,controlled
b9c8f800,32,3,5,images/2026/01/21/latrinidad_balili_bsuback_20260121_064155_b9c8f800.jpg,1080,1080,1080p,2026-01-21T06:41:55.067Z,,,,,,,-5,26,209,La Trinidad,Balili,BSU Back,tomato,,,,TECNO_TECNO_CM8_DF2CAC,controlled
a3d80175,32,4,5,images/2026/01/21/latrinidad_balili_bsuback_20260121_064200_a3d80175.jpg,1080,1080,1080p,2026-01-21T06:42:00.389Z,,,,,,,-19,15,209,La Trinidad,Balili,BSU Back,tomato,,,,TECNO_TECNO_CM8_DF2CAC,controlled
79962287,32,5,5,images/2026/01/21/latrinidad_balili_bsuback_20260121_064215_79962287.jpg,1080,1080,1080p,2026-01-21T06:42:15.455Z,,,,,,,4,-4,216,La Trinidad,Balili,BSU Back,tomato,,,,TECNO_TECNO_CM8_DF2CAC,controlled
8f05d900,61,1,5,images/2026/01/21/latrinidad_balili_bsuback_20260121_064238_8f05d900.jpg,1080,1080,1080p,2026-01-21T06:42:38.012Z,,,,,,,14,-5,203,La Trinidad,Balili,BSU Back,cabbage,,,,TECNO_TECNO_CM8_DF2CAC,controlled
af95af56,61,2,5,images/2026/01/21/latrinidad_balili_bsuback_20260121_064243_af95af56.jpg,1080,1080,1080p,2026-01-21T06:42:43.988Z,,,,,,,18,1,199,La Trinidad,Balili,BSU Back,cabbage,,,,TECNO_TECNO_CM8_DF2CAC,controlled
3c61f9c3,61,3,5,images/2026/01/21/latrinidad_balili_bsuback_20260121_064256_3c61f9c3.jpg,1080,1080,1080p,2026-01-21T06:42:56.192Z,,,,,,,0,13,193,La Trinidad,Balili,BSU Back,cabbage,,,,TECNO_TECNO_CM8_DF2CAC,controlled
c7be660f,61,4,5,images/2026/01/21/latrinidad_balili_bsuback_20260121_064301_c7be660f.jpg,1080,1080,1080p,2026-01-21T06:43:01.829Z,,,,,,,12,11,196,La Trinidad,Balili,BSU Back,cabbage,,,,TECNO_TECNO_CM8_DF2CAC,controlled
7ed5ece0,61,5,5,images/2026/01/21/latrinidad_balili_bsuback_20260121_064324_7ed5ece0.jpg,1080,1080,1080p,2026-01-21T06:43:24.121Z,,,,,,,4,6,237,La Trinidad,Balili,BSU Back,cabbage,,,,TECNO_TECNO_CM8_DF2CAC,controlled
