uuid,spot_number,shot_number,shots_in_spot,image_filename,image_width,image_height,image_quality,capture_datetime,latitude,longitude,altitude_m,altitude_accuracy_m,gps_accuracy_m,gps_reading_count,camera_pitch,camera_roll,camera_heading,municipality,barangay,farm_name,crops,temperature_c,humidity_percent,notes,device_id,capture_mode
80caf325,151,1,5,images/atok/paoay/no_farm/cabbage/atok_paoay_20260206_041722_80caf325.jpg,1920,1080,1080p,2026-02-06T04:17:22.286Z,16.622860,120.757058,2433,6,3.5,1,9,-1,198,Atok,Paoay,,cabbage,21.3,30,,samsung_SM-A546E_DF7DBC,field
308c306c,151,2,5,images/atok/paoay/no_farm/cabbage/atok_paoay_20260206_041728_308c306c.jpg,1920,1080,1080p,2026-02-06T04:17:28.903Z,16.622860,120.757058,2433,6,3.5,1,17,1,243,Atok,Paoay,,cabbage,21.3,30,,samsung_SM-A546E_DF7DBC,field
5be52175,151,3,5,images/atok/paoay/no_farm/cabbage/atok_paoay_20260206_041735_5be52175.jpg,1920,1080,1080p,2026-02-06T04:17:35.924Z,16.622877,120.757067,2423,3,3.0,1,27,-17,313,Atok,Paoay,,cabbage,21.3,30,,samsung_SM-A546E_DF7DBC,field
f5b08c78,151,4,5,images/atok/paoay/no_farm/cabbage/atok_paoay_20260206_041743_f5b08c78.jpg,1920,1080,1080p,2026-02-06T04:17:43.916Z,16.622897,120.757073,2422,3,3.0,1,34,-2,226,Atok,Paoay,,cabbage,21.3,30,,samsung_SM-A546E_DF7DBC,field
4d5eaadf,151,5,5,images/atok/paoay/no_farm/cabbage/atok_paoay_20260206_041752_4d5eaadf.jpg,1920,1080,1080p,2026-02-06T04:17:52.740Z,16.622897,120.757073,2422,3,3.0,1,21,16,225,Atok,Paoay,,cabbage,21.3,30,,samsung_SM-A546E_DF7DBC,field
d8afb776,153,1,5,images/atok/paoay/no_farm/cabbage/atok_paoay_20260206_041851_d8afb776.jpg,1920,1080,1080p,2026-02-06T04:18:51.808Z,16.622985,120.757020,2426,16,4.7,1,21,9,170,Atok,Paoay,,cabbage,21.3,30,,samsung_SM-A546E_DF7DBC,field
d21804cc,153,2,5,images/atok/paoay/no_farm/cabbage/atok_paoay_20260206_041858_d21804cc.jpg,1920,1080,1080p,2026-02-06T04:18:58.248Z,16.622985,120.757020,2426,16,4.7,1,22,-2,57,Atok,Paoay,,cabbage,21.3,30,,samsung_SM-A546E_DF7DBC,field
9c8236cf,153,3,5,images/atok/paoay/no_farm/cabbage/atok_paoay_20260206_041904_9c8236cf.jpg,1920,1080,1080p,2026-02-06T04:19:04.590Z,16.622985,120.757020,2426,16,4.7,1,8,-10,155,Atok,Paoay,,cabbage,21.3,30,,samsung_SM-A546E_DF7DBC,field
c9e4769e,153,4,5,images/atok/paoay/no_farm/cabbage/atok_paoay_20260206_041910_c9e4769e.jpg,1920,1080,1080p,2026-02-06T04:19:10.250Z,16.622985,120.757020,2426,16,4.7,1,3,1,129,Atok,Paoay,,cabbage,21.3,30,,samsung_SM-A546E_DF7DBC,field
bd353a0c,153,5,5,images/atok/paoay/no_farm/cabbage/atok_paoay_20260206_041918_bd353a0c.jpg,1920,1080,1080p,2026-02-06T04:19:18.324Z,16.622985,120.757020,2426,16,4.7,1,34,7,174,Atok,Paoay,,cabbage,21.3,30,,samsung_SM-A546E_DF7DBC,field
a99d0d08,155,1,5,images/atok/paoay/no_farm/cabbage/atok_paoay_20260206_042059_a99d0d08.jpg,1920,1080,1080p,2026-02-06T04:20:59.648Z,16.623009,120.756922,2424,5,7.3,1,26,1,2,Atok,Paoay,,cabbage,21.4,29,,samsung_SM-A546E_DF7DBC,field
d5d917bb,155,2,5,images/atok/paoay/no_farm/cabbage/atok_paoay_20260206_042106_d5d917bb.jpg,1920,1080,1080p,2026-02-06T04:21:06.581Z,16.623026,120.756937,2426,19,3.7,1,17,-6,102,Atok,Paoay,,cabbage,21.4,29,,samsung_SM-A546E_DF7DBC,field
28d7c0e0,155,3,5,images/atok/paoay/no_farm/cabbage/atok_paoay_20260206_042114_28d7c0e0.jpg,1920,1080,1080p,2026-02-06T04:21:14.334Z,16.623032,120.756956,2426,19,3.0,1,15,1,195,Atok,Paoay,,cabbage,21.4,29,,samsung_SM-A546E_DF7DBC,field
93bc7d09,155,4,5,images/atok/paoay/no_farm/cabbage/atok_paoay_20260206_042119_93bc7d09.jpg,1920,1080,1080p,2026-02-06T04:21:19.983Z,16.623032,120.756956,2426,19,3.0,1,13,-19,279,Atok,Paoay,,cabbage,21.4,29,,samsung_SM-A546E_DF7DBC,field
87609190,155,5,5,images/atok/paoay/no_farm/cabbage/atok_paoay_20260206_042126_87609190.jpg,1920,1080,1080p,2026-02-06T04:21:26.874Z,16.623032,120.756956,2426,19,3.0,1,26,14,184,Atok,Paoay,,cabbage,21.4,29,,samsung_SM-A546E_DF7DBC,field
0f5fe6d3,156,1,5,images/atok/paoay/no_farm/cabbage/atok_paoay_20260206_042517_0f5fe6d3.jpg,1920,1080,1080p,2026-02-06T04:25:17.428Z,16.622646,120.757544,2433,7,7.5,1,8,-5,287,Atok,Paoay,,cabbage,21.4,29,,samsung_SM-A546E_DF7DBC,field
c07e56b9,156,2,5,images/atok/paoay/no_farm/cabbage/atok_paoay_20260206_042523_c07e56b9.jpg,1920,1080,1080p,2026-02-06T04:25:23.533Z,16.622646,120.757544,2433,7,7.5,1,31,-2,219,Atok,Paoay,,cabbage,21.4,29,,samsung_SM-A546E_DF7DBC,field
0e5d8405,156,3,5,images/atok/paoay/no_farm/cabbage/atok_paoay_20260206_042530_0e5d8405.jpg,1920,1080,1080p,2026-02-06T04:25:30.992Z,16.622646,120.757544,2433,7,7.5,1,10,-5,13,Atok,Paoay,,cabbage,21.4,29,,samsung_SM-A546E_DF7DBC,field
661f2943,156,4,5,images/atok/paoay/no_farm/cabbage/atok_paoay_20260206_042537_661f2943.jpg,1920,1080,1080p,2026-02-06T04:25:37.492Z,16.622646,120.757544,2433,7,7.5,1,20,0,308,Atok,Paoay,,cabbage,21.4,29,,samsung_SM-A546E_DF7DBC,field
d2ba7c34,156,5,5,images/atok/paoay/no_farm/cabbage/atok_paoay_20260206_042543_d2ba7c34.jpg,1920,1080,1080p,2026-02-06T04:25:43.832Z,16.622646,120.757544,2433,7,7.5,1,30,1,268,Atok,Paoay,,radish,21.4,29,,samsung_SM-A546E_DF7DBC,field
ced33788,157,1,5,images/atok/paoay/no_farm/radish/atok_paoay_20260206_042642_ced33788.jpg,1920,1080,1080p,2026-02-06T04:26:42.226Z,16.622640,120.757634,2433,11,3.5,1,27,-1,329,Atok,Paoay,,radish,21.4,29,,samsung_SM-A546E_DF7DBC,field
f471889f,157,2,5,images/atok/paoay/no_farm/radish/atok_paoay_20260206_042648_f471889f.jpg,1920,1080,1080p,2026-02-06T04:26:48.202Z,16.622640,120.757634,2433,11,3.5,1,28,-5,333,Atok,Paoay,,radish,21.4,29,,samsung_SM-A546E_DF7DBC,field
5e8c7295,157,3,5,images/atok/paoay/no_farm/radish/atok_paoay_20260206_042655_5e8c7295.jpg,1920,1080,1080p,2026-02-06T04:26:55.276Z,16.622640,120.757634,2433,11,3.5,1,3,-7,4,Atok,Paoay,,radish,21.4,29,,samsung_SM-A546E_DF7DBC,field
fd7eea87,157,4,5,images/atok/paoay/no_farm/radish/atok_paoay_20260206_042700_fd7eea87.jpg,1920,1080,1080p,2026-02-06T04:27:00.878Z,16.622640,120.757634,2433,11,3.5,1,-8,-9,78,Atok,Paoay,,radish,21.4,29,,samsung_SM-A546E_DF7DBC,field
f482857e,157,5,5,images/atok/paoay/no_farm/radish/atok_paoay_20260206_042708_f482857e.jpg,1920,1080,1080p,2026-02-06T04:27:08.644Z,16.622640,120.757634,2433,11,3.5,1,42,-1,310,Atok,Paoay,,radish,21.4,29,,samsung_SM-A546E_DF7DBC,field
ba018630,159,1,5,images/atok/paoay/no_farm/radish/atok_paoay_20260206_042832_ba018630.jpg,1920,1080,1080p,2026-02-06T04:28:32.766Z,16.622747,120.757767,2433,6,6.5,1,28,9,23,Atok,Paoay,,radish,21.4,29,,samsung_SM-A546E_DF7DBC,field
acddab47,159,2,5,images/atok/paoay/no_farm/radish/atok_paoay_20260206_042839_acddab47.jpg,1920,1080,1080p,2026-02-06T04:28:39.129Z,16.622747,120.757767,2433,6,6.5,1,32,1,335,Atok,Paoay,,radish,21.4,29,,samsung_SM-A546E_DF7DBC,field
d6deed5d,159,3,5,images/atok/paoay/no_farm/radish/atok_paoay_20260206_042846_d6deed5d.jpg,1920,1080,1080p,2026-02-06T04:28:46.495Z,16.622747,120.757767,2433,6,6.5,1,17,-1,95,Atok,Paoay,,radish,21.4,29,,samsung_SM-A546E_DF7DBC,field
7d23b26d,159,4,5,images/atok/paoay/no_farm/radish/atok_paoay_20260206_042852_7d23b26d.jpg,1920,1080,1080p,2026-02-06T04:28:52.542Z,16.622747,120.757767,2433,6,6.5,1,11,-2,134,Atok,Paoay,,radish,21.4,29,,samsung_SM-A546E_DF7DBC,field
709dd8dc,159,5,5,images/atok/paoay/no_farm/radish/atok_paoay_20260206_042858_709dd8dc.jpg,1920,1080,1080p,2026-02-06T04:28:58.773Z,16.622747,120.757767,2433,6,6.5,1,36,-9,110,Atok,Paoay,,radish,21.4,29,,samsung_SM-A546E_DF7DBC,field
2b0155fa,160,1,5,images/atok/paoay/no_farm/radish/atok_paoay_20260206_043007_2b0155fa.jpg,1920,1080,1080p,2026-02-06T04:30:07.797Z,16.622865,120.757753,2433,3,68.1,1,19,-9,21,Atok,Paoay,,radish,21.4,29,,samsung_SM-A546E_DF7DBC,field
98af3b76,160,2,5,images/atok/paoay/no_farm/radish/atok_paoay_20260206_043023_98af3b76.jpg,1920,1080,1080p,2026-02-06T04:30:23.998Z,16.622880,120.757743,2433,3,3.1,1,18,-8,254,Atok,Paoay,,radish,21.4,29,,samsung_SM-A546E_DF7DBC,field
4955077a,160,3,5,images/atok/paoay/no_farm/radish/atok_paoay_20260206_043028_4955077a.jpg,1920,1080,1080p,2026-02-06T04:30:28.598Z,16.622880,120.757743,2433,3,3.1,1,7,-3,239,Atok,Paoay,,radish,21.4,29,,samsung_SM-A546E_DF7DBC,field
b2e81ac4,160,4,5,images/atok/paoay/no_farm/radish/atok_paoay_20260206_043034_b2e81ac4.jpg,1920,1080,1080p,2026-02-06T04:30:34.166Z,16.622880,120.757743,2433,3,3.1,1,11,0,235,Atok,Paoay,,radish,21.4,29,,samsung_SM-A546E_DF7DBC,field
c52b8e89,160,5,5,images/atok/paoay/no_farm/radish/atok_paoay_20260206_043040_c52b8e89.jpg,1920,1080,1080p,2026-02-06T04:30:40.229Z,16.622880,120.757743,2433,3,3.1,1,22,4,233,Atok,Paoay,,radish,21.4,29,,samsung_SM-A546E_DF7DBC,field
dfb2a736,161,1,5,images/atok/paoay/no_farm/carrot/atok_paoay_20260206_044923_dfb2a736.jpg,1920,1080,1080p,2026-02-06T04:49:23.466Z,16.622764,120.758263,2434,7,5.8,1,42,44,338,Atok,Paoay,,carrot,21.7,27,,samsung_SM-A546E_DF7DBC,field
46909eb2,161,2,5,images/atok/paoay/no_farm/carrot/atok_paoay_20260206_044933_46909eb2.jpg,1920,1080,1080p,2026-02-06T04:49:33.448Z,16.622764,120.758263,2434,7,5.8,1,30,9,303,Atok,Paoay,,carrot,21.7,27,,samsung_SM-A546E_DF7DBC,field
33b4cfe5,161,3,5,images/atok/paoay/no_farm/carrot/atok_paoay_20260206_044942_33b4cfe5.jpg,1920,1080,1080p,2026-02-06T04:49:42.091Z,16.622764,120.758263,2434,7,5.8,1,40,3,258,Atok,Paoay,,carrot,21.7,27,,samsung_SM-A546E_DF7DBC,field
419e75c1,161,4,5,images/atok/paoay/no_farm/carrot/atok_paoay_20260206_044948_419e75c1.jpg,1920,1080,1080p,2026-02-06T04:49:48.929Z,16.622776,120.758277,2424,6,3.0,1,12,-1,136,Atok,Paoay,,carrot,21.7,27,,samsung_SM-A546E_DF7DBC,field
18962136,161,5,5,images/atok/paoay/no_farm/carrot/atok_paoay_20260206_044955_18962136.jpg,1920,1080,1080p,2026-02-06T04:49:55.664Z,16.622776,120.758277,2424,6,3.0,1,38,-3,194,Atok,Paoay,,carrot,21.7,27,,samsung_SM-A546E_DF7DBC,field
46317f0a,164,1,5,images/atok/paoay/no_farm/carrot/atok_paoay_20260206_045102_46317f0a.jpg,1920,1080,1080p,2026-02-06T04:51:02.620Z,16.623030,120.758332,2433,5,5.0,1,26,8,121,Atok,Paoay,,carrot,21.7,27,,samsung_SM-A546E_DF7DBC,field
7da7217a,164,2,5,images/atok/paoay/no_farm/carrot/atok_paoay_20260206_045109_7da7217a.jpg,1920,1080,1080p,2026-02-06T04:51:09.482Z,16.623030,120.758332,2433,5,5.0,1,28,-5,177,Atok,Paoay,,carrot,21.7,27,,samsung_SM-A546E_DF7DBC,field
39f7ec81,164,3,5,images/atok/paoay/no_farm/carrot/atok_paoay_20260206_045116_39f7ec81.jpg,1920,1080,1080p,2026-02-06T04:51:16.287Z,16.623030,120.758332,2433,5,5.0,1,32,3,214,Atok,Paoay,,carrot,21.7,27,,samsung_SM-A546E_DF7DBC,field
5a7e6c14,164,4,5,images/atok/paoay/no_farm/carrot/atok_paoay_20260206_045125_5a7e6c14.jpg,1920,1080,1080p,2026-02-06T04:51:25.263Z,16.623030,120.758332,2433,5,5.0,1,-10,3,354,Atok,Paoay,,carrot,21.7,27,,samsung_SM-A546E_DF7DBC,field
b76f7bd2,164,5,5,images/atok/paoay/no_farm/carrot/atok_paoay_20260206_045133_b76f7bd2.jpg,1920,1080,1080p,2026-02-06T04:51:33.592Z,16.623030,120.758332,2433,5,5.0,1,39,4,16,Atok,Paoay,,carrot,21.7,27,,samsung_SM-A546E_DF7DBC,field
4e593381,167,1,5,images/atok/paoay/no_farm/carrot/atok_paoay_20260206_045511_4e593381.jpg,1920,1080,1080p,2026-02-06T04:55:11.246Z,16.623190,120.758234,2433,19,17.4,1,39,-5,301,Atok,Paoay,,carrot,21.7,27,,samsung_SM-A546E_DF7DBC,field
4bcaa4ae,167,2,5,images/atok/paoay/no_farm/carrot/atok_paoay_20260206_045519_4bcaa4ae.jpg,1920,1080,1080p,2026-02-06T04:55:19.039Z,16.623171,120.758243,2433,18,19.0,1,32,-2,195,Atok,Paoay,,carrot,21.7,27,,samsung_SM-A546E_DF7DBC,field
bc7adadf,167,3,5,images/atok/paoay/no_farm/carrot/atok_paoay_20260206_045526_bc7adadf.jpg,1920,1080,1080p,2026-02-06T04:55:26.419Z,16.623154,120.758224,2426,12,11.4,1,31,-1,148,Atok,Paoay,,carrot,21.7,27,,samsung_SM-A546E_DF7DBC,field
ad079800,167,4,5,images/atok/paoay/no_farm/carrot/atok_paoay_20260206_045534_ad079800.jpg,1920,1080,1080p,2026-02-06T04:55:34.604Z,16.623166,120.758242,2433,12,6.6,1,30,2,149,Atok,Paoay,,carrot,21.7,27,,samsung_SM-A546E_DF7DBC,field
808a0b58,167,5,5,images/atok/paoay/no_farm/carrot/atok_paoay_20260206_045543_808a0b58.jpg,1920,1080,1080p,2026-02-06T04:55:43.818Z,16.623146,120.758261,2433,7,6.6,1,29,11,105,Atok,Paoay,,carrot,21.7,27,,samsung_SM-A546E_DF7DBC,field