uuid,spot_number,shot_number,shots_in_spot,image_filename,image_width,image_height,image_quality,capture_datetime,latitude,longitude,altitude_m,altitude_accuracy_m,gps_accuracy_m,gps_reading_count,camera_pitch,camera_roll,camera_heading,municipality,barangay,farm_name,crops,temperature_c,humidity_percent,notes,device_id,capture_mode
64f8fc74,20,1,5,images/atok/paoay/no_farm/cabbage/atok_paoay_20260213_014319_64f8fc74.jpg,1920,1080,1080p,2026-02-13T01:43:19.115Z,16.453234,120.590998,1360,6,98.4,1,29,-1,345,Atok,Paoay,,cabbage,22.7,49,,samsung_SM-A546E_DF7DBC,field
078698c9,20,2,5,images/atok/paoay/no_farm/cabbage/atok_paoay_20260213_014326_078698c9.jpg,1920,1080,1080p,2026-02-13T01:43:26.576Z,16.453425,120.590791,1360,4,313.0,1,22,3,342,Atok,Paoay,,cabbage,22.7,49,,samsung_SM-A546E_DF7DBC,field
9debee81,20,3,5,images/atok/paoay/no_farm/cabbage/atok_paoay_20260213_014333_9debee81.jpg,1920,1080,1080p,2026-02-13T01:43:33.163Z,16.453539,120.590868,1360,4,24.5,1,12,4,343,Atok,Paoay,,cabbage,22.7,49,,samsung_SM-A546E_DF7DBC,field
6835f131,20,4,5,images/atok/paoay/no_farm/cabbage/atok_paoay_20260213_014339_6835f131.jpg,1920,1080,1080p,2026-02-13T01:43:39.987Z,16.453539,120.590868,1360,4,24.5,1,2,4,346,Atok,Paoay,,cabbage,22.7,49,,samsung_SM-A546E_DF7DBC,field
14f5bad6,20,5,5,images/atok/paoay/no_farm/cabbage/atok_paoay_20260213_014347_14f5bad6.jpg,1920,1080,1080p,2026-02-13T01:43:48.027Z,16.453523,120.590701,1360,5,35.0,1,27,0,300,Atok,Paoay,,cabbage,22.7,49,,samsung_SM-A546E_DF7DBC,field
2ab982d9,22,1,5,images/atok/paoay/no_farm/cabbage/atok_paoay_20260213_014435_2ab982d9.jpg,1920,1080,1080p,2026-02-13T01:44:35.730Z,16.453579,120.590570,1358,9,28.5,1,33,-1,324,Atok,Paoay,,cabbage,22.7,49,,samsung_SM-A546E_DF7DBC,field
8a6d667b,22,2,5,images/atok/paoay/no_farm/cabbage/atok_paoay_20260213_014441_8a6d667b.jpg,1920,1080,1080p,2026-02-13T01:44:41.991Z,16.453567,120.590842,1358,7,49.5,1,21,1,330,Atok,Paoay,,cabbage,22.7,49,,samsung_SM-A546E_DF7DBC,field
540041d1,22,3,5,images/atok/paoay/no_farm/cabbage/atok_paoay_20260213_014448_540041d1.jpg,1920,1080,1080p,2026-02-13T01:44:48.701Z,16.453567,120.590842,1358,7,49.5,1,11,2,330,Atok,Paoay,,cabbage,22.7,49,,samsung_SM-A546E_DF7DBC,field
0782f9dc,22,4,5,images/atok/paoay/no_farm/cabbage/atok_paoay_20260213_014455_0782f9dc.jpg,1920,1080,1080p,2026-02-13T01:44:55.643Z,16.453533,120.590727,1358,7,40.5,1,2,0,334,Atok,Paoay,,cabbage,22.7,49,,samsung_SM-A546E_DF7DBC,field
1cd27615,22,5,5,images/atok/paoay/no_farm/cabbage/atok_paoay_20260213_014504_1cd27615.jpg,1920,1080,1080p,2026-02-13T01:45:04.174Z,16.453174,120.591098,1360,9,98.4,1,30,0,288,Atok,Paoay,,cabbage,22.7,49,,samsung_SM-A546E_DF7DBC,field
6ff39026,23,1,5,images/atok/paoay/no_farm/cabbage/atok_paoay_20260213_014550_6ff39026.jpg,1920,1080,1080p,2026-02-13T01:45:50.887Z,16.453474,120.590928,1358,6,39.0,1,33,0,343,Atok,Paoay,,cabbage,22.7,49,,samsung_SM-A546E_DF7DBC,field
93331dd3,23,2,5,images/atok/paoay/no_farm/cabbage/atok_paoay_20260213_014557_93331dd3.jpg,1920,1080,1080p,2026-02-13T01:45:57.418Z,16.453474,120.590928,1358,6,39.0,1,19,-1,345,Atok,Paoay,,cabbage,22.7,49,,samsung_SM-A546E_DF7DBC,field
8ef0563c,23,3,5,images/atok/paoay/no_farm/cabbage/atok_paoay_20260213_014603_8ef0563c.jpg,1920,1080,1080p,2026-02-13T01:46:03.402Z,16.453353,120.590984,1360,5,18.5,1,8,1,350,Atok,Paoay,,cabbage,22.7,49,,samsung_SM-A546E_DF7DBC,field
8b4d8f40,23,4,5,images/atok/paoay/no_farm/cabbage/atok_paoay_20260213_014609_8b4d8f40.jpg,1920,1080,1080p,2026-02-13T01:46:09.697Z,16.453353,120.590984,1360,5,18.5,1,0,1,354,Atok,Paoay,,cabbage,22.7,49,,samsung_SM-A546E_DF7DBC,field
8a6543f3,23,5,5,images/atok/paoay/no_farm/cabbage/atok_paoay_20260213_014617_8a6543f3.jpg,1920,1080,1080p,2026-02-13T01:46:17.076Z,16.453528,120.590831,1358,5,50.7,1,33,-4,300,Atok,Paoay,,cabbage,22.7,49,,samsung_SM-A546E_DF7DBC,field
6868ef6e,25,1,5,images/atok/paoay/no_farm/cabbage/atok_paoay_20260213_014659_6868ef6e.jpg,1920,1080,1080p,2026-02-13T01:46:59.579Z,16.453332,120.591048,1380,19,38.5,1,28,0,348,Atok,Paoay,,cabbage,22.7,49,,samsung_SM-A546E_DF7DBC,field
bc788627,25,2,5,images/atok/paoay/no_farm/cabbage/atok_paoay_20260213_014707_bc788627.jpg,1920,1080,1080p,2026-02-13T01:47:07.598Z,16.453332,120.591048,1380,19,38.5,1,23,-1,349,Atok,Paoay,,cabbage,22.7,49,,samsung_SM-A546E_DF7DBC,field
95107b3a,25,3,5,images/atok/paoay/no_farm/cabbage/atok_paoay_20260213_014715_95107b3a.jpg,1920,1080,1080p,2026-02-13T01:47:15.437Z,16.453430,120.591020,1360,19,27.0,1,12,0,354,Atok,Paoay,,cabbage,22.7,49,,samsung_SM-A546E_DF7DBC,field
46cc94c5,25,4,5,images/atok/paoay/no_farm/cabbage/atok_paoay_20260213_014723_46cc94c5.jpg,1920,1080,1080p,2026-02-13T01:47:23.850Z,16.453215,120.590999,1358,9,98.4,1,2,-1,356,Atok,Paoay,,cabbage,22.7,49,,samsung_SM-A546E_DF7DBC,field
5128d871,25,5,5,images/atok/paoay/no_farm/cabbage/atok_paoay_20260213_014732_5128d871.jpg,1920,1080,1080p,2026-02-13T01:47:32.759Z,16.453413,120.590699,1358,9,293.5,1,32,0,296,Atok,Paoay,,cabbage,22.7,49,,samsung_SM-A546E_DF7DBC,field
b53c3457,27,1,5,images/atok/paoay/no_farm/radish/atok_paoay_20260213_014823_b53c3457.jpg,1920,1080,1080p,2026-02-13T01:48:23.998Z,16.453622,120.590649,1358,9,40.0,1,31,-2,350,Atok,Paoay,,radish,22.7,49,,samsung_SM-A546E_DF7DBC,field
4218955e,27,2,5,images/atok/paoay/no_farm/radish/atok_paoay_20260213_014831_4218955e.jpg,1920,1080,1080p,2026-02-13T01:48:31.189Z,16.453622,120.590649,1358,9,40.0,1,18,0,350,Atok,Paoay,,radish,22.7,49,,samsung_SM-A546E_DF7DBC,field
077806ae,27,3,5,images/atok/paoay/no_farm/radish/atok_paoay_20260213_014838_077806ae.jpg,1920,1080,1080p,2026-02-13T01:48:38.710Z,16.453562,120.590581,1360,19,47.0,1,13,0,352,Atok,Paoay,,radish,22.7,49,,samsung_SM-A546E_DF7DBC,field
a9b21973,27,4,5,images/atok/paoay/no_farm/radish/atok_paoay_20260213_014846_a9b21973.jpg,1920,1080,1080p,2026-02-13T01:48:46.450Z,16.453562,120.590581,1360,19,47.0,1,6,0,356,Atok,Paoay,,radish,22.7,49,,samsung_SM-A546E_DF7DBC,field
82aef4e5,27,5,5,images/atok/paoay/no_farm/radish/atok_paoay_20260213_014853_82aef4e5.jpg,1920,1080,1080p,2026-02-13T01:48:53.665Z,16.453495,120.590739,1360,9,20.0,1,33,3,292,Atok,Paoay,,radish,22.7,49,,samsung_SM-A546E_DF7DBC,field
9f5d5e9d,29,1,5,images/atok/paoay/no_farm/radish/atok_paoay_20260213_014942_9f5d5e9d.jpg,1920,1080,1080p,2026-02-13T01:49:42.693Z,16.453451,120.590755,1358,21,42.5,1,25,0,359,Atok,Paoay,,radish,22.7,49,,samsung_SM-A546E_DF7DBC,field
90c59f38,29,2,5,images/atok/paoay/no_farm/radish/atok_paoay_20260213_014952_90c59f38.jpg,1920,1080,1080p,2026-02-13T01:49:52.134Z,16.453587,120.590712,1358,7,39.0,1,19,3,359,Atok,Paoay,,radish,22.7,49,,samsung_SM-A546E_DF7DBC,field
7d1d9806,29,3,5,images/atok/paoay/no_farm/radish/atok_paoay_20260213_014959_7d1d9806.jpg,1920,1080,1080p,2026-02-13T01:49:59.850Z,16.453232,120.590934,1358,9,98.4,1,11,0,359,Atok,Paoay,,radish,22.7,49,,samsung_SM-A546E_DF7DBC,field
983a8aaf,29,4,5,images/atok/paoay/no_farm/radish/atok_paoay_20260213_015007_983a8aaf.jpg,1920,1080,1080p,2026-02-13T01:50:07.923Z,16.453292,120.590829,1358,5,53.6,1,6,-2,0,Atok,Paoay,,radish,22.7,49,,samsung_SM-A546E_DF7DBC,field
78b3462a,29,5,5,images/atok/paoay/no_farm/radish/atok_paoay_20260213_015016_78b3462a.jpg,1920,1080,1080p,2026-02-13T01:50:16.455Z,16.453437,120.590821,1358,5,43.5,1,31,1,304,Atok,Paoay,,radish,22.7,49,,samsung_SM-A546E_DF7DBC,field
b519c46e,30,1,5,images/atok/paoay/no_farm/radish/atok_paoay_20260213_015134_b519c46e.jpg,1920,1080,1080p,2026-02-13T01:51:34.338Z,16.453470,120.590862,1358,19,17.0,1,28,0,353,Atok,Paoay,,radish,22.7,49,,samsung_SM-A546E_DF7DBC,field
036cbb83,30,2,5,images/atok/paoay/no_farm/radish/atok_paoay_20260213_015144_036cbb83.jpg,1920,1080,1080p,2026-02-13T01:51:44.203Z,16.453215,120.590999,1358,9,98.4,1,18,1,357,Atok,Paoay,,radish,22.7,49,,samsung_SM-A546E_DF7DBC,field
b3472fb2,30,3,5,images/atok/paoay/no_farm/radish/atok_paoay_20260213_015152_b3472fb2.jpg,1920,1080,1080p,2026-02-13T01:51:52.082Z,16.453215,120.590999,1358,9,98.4,1,9,0,359,Atok,Paoay,,radish,22.7,49,,samsung_SM-A546E_DF7DBC,field
abcb336b,30,4,5,images/atok/paoay/no_farm/radish/atok_paoay_20260213_015159_abcb336b.jpg,1920,1080,1080p,2026-02-13T01:51:59.313Z,16.453435,120.590782,1360,13,17.5,1,4,0,4,Atok,Paoay,,radish,22.7,49,,samsung_SM-A546E_DF7DBC,field
20346071,30,5,5,images/atok/paoay/no_farm/radish/atok_paoay_20260213_015207_20346071.jpg,1920,1080,1080p,2026-02-13T01:52:07.650Z,16.453435,120.590782,1360,13,17.5,1,30,0,311,Atok,Paoay,,radish,22.7,49,,samsung_SM-A546E_DF7DBC,field
b9ef15aa,32,1,5,images/atok/paoay/no_farm/radish/atok_paoay_20260213_015243_b9ef15aa.jpg,1920,1080,1080p,2026-02-13T01:52:43.261Z,16.453487,120.590908,1360,19,17.5,1,30,0,351,Atok,Paoay,,radish,22.7,49,,samsung_SM-A546E_DF7DBC,field
4dbf4897,32,2,5,images/atok/paoay/no_farm/radish/atok_paoay_20260213_015251_4dbf4897.jpg,1920,1080,1080p,2026-02-13T01:52:51.403Z,16.453380,120.590617,1358,18,111.6,1,14,3,354,Atok,Paoay,,radish,22.7,49,,samsung_SM-A546E_DF7DBC,field
15b08e7e,32,3,5,images/atok/paoay/no_farm/radish/atok_paoay_20260213_015258_15b08e7e.jpg,1920,1080,1080p,2026-02-13T01:52:58.760Z,16.453618,120.590757,1359,7,19.5,1,4,0,356,Atok,Paoay,,radish,22.7,49,,samsung_SM-A546E_DF7DBC,field
788f5d81,32,4,5,images/atok/paoay/no_farm/radish/atok_paoay_20260213_015306_788f5d81.jpg,1920,1080,1080p,2026-02-13T01:53:06.200Z,16.453618,120.590757,1359,7,19.5,1,-3,0,358,Atok,Paoay,,radish,22.7,49,,samsung_SM-A546E_DF7DBC,field
33476f39,32,5,5,images/atok/paoay/no_farm/radish/atok_paoay_20260213_015315_33476f39.jpg,1920,1080,1080p,2026-02-13T01:53:15.685Z,16.453423,120.590763,1358,4,32.0,1,18,3,54,Atok,Paoay,,radish,22.7,49,,samsung_SM-A546E_DF7DBC,field
a8d80be7,34,1,5,images/atok/paoay/no_farm/radish/atok_paoay_20260213_015356_a8d80be7.jpg,1920,1080,1080p,2026-02-13T01:53:56.178Z,16.453215,120.590999,1358,9,98.4,1,29,1,353,Atok,Paoay,,radish,22.7,49,,samsung_SM-A546E_DF7DBC,field
5928928b,34,2,5,images/atok/paoay/no_farm/radish/atok_paoay_20260213_015404_5928928b.jpg,1920,1080,1080p,2026-02-13T01:54:04.198Z,16.453454,120.590994,1358,9,33.5,1,22,2,350,Atok,Paoay,,radish,22.7,49,,samsung_SM-A546E_DF7DBC,field
a5faa458,34,3,5,images/atok/paoay/no_farm/radish/atok_paoay_20260213_015411_a5faa458.jpg,1920,1080,1080p,2026-02-13T01:54:11.512Z,16.453327,120.590866,1358,9,19.0,1,9,0,355,Atok,Paoay,,radish,22.7,49,,samsung_SM-A546E_DF7DBC,field
cad588c2,34,4,5,images/atok/paoay/no_farm/radish/atok_paoay_20260213_015420_cad588c2.jpg,1920,1080,1080p,2026-02-13T01:54:20.102Z,16.453327,120.590866,1358,9,19.0,1,27,-1,8,Atok,Paoay,,radish,22.7,49,,samsung_SM-A546E_DF7DBC,field
3a5a0b6b,34,5,5,images/atok/paoay/no_farm/radish/atok_paoay_20260213_015429_3a5a0b6b.jpg,1920,1080,1080p,2026-02-13T01:54:29.112Z,16.453178,120.591029,1360,5,68.4,1,11,1,43,Atok,Paoay,,radish,22.7,49,,samsung_SM-A546E_DF7DBC,field
a70f2bbb,37,1,5,images/atok/paoay/no_farm/cabbage/atok_paoay_20260213_015704_a70f2bbb.jpg,1920,1080,1080p,2026-02-13T01:57:04.782Z,16.453147,120.591085,1360,5,68.4,1,30,-3,338,Atok,Paoay,,cabbage,22.7,49,,samsung_SM-A546E_DF7DBC,field
2fd99972,37,2,5,images/atok/paoay/no_farm/cabbage/atok_paoay_20260213_015712_2fd99972.jpg,1920,1080,1080p,2026-02-13T01:57:12.978Z,16.453430,120.590911,1360,9,34.0,1,22,0,340,Atok,Paoay,,cabbage,22.7,49,,samsung_SM-A546E_DF7DBC,field
54cb5121,37,3,5,images/atok/paoay/no_farm/cabbage/atok_paoay_20260213_015721_54cb5121.jpg,1920,1080,1080p,2026-02-13T01:57:21.089Z,16.453409,120.590914,1360,5,225.2,1,10,1,342,Atok,Paoay,,cabbage,22.7,49,,samsung_SM-A546E_DF7DBC,field
37ee2b03,37,4,5,images/atok/paoay/no_farm/cabbage/atok_paoay_20260213_015730_37ee2b03.jpg,1920,1080,1080p,2026-02-13T01:57:30.095Z,16.453359,120.590748,1360,5,36.0,1,6,-1,347,Atok,Paoay,,cabbage,22.7,49,,samsung_SM-A546E_DF7DBC,field
fb841be6,37,5,5,images/atok/paoay/no_farm/cabbage/atok_paoay_20260213_015738_fb841be6.jpg,1920,1080,1080p,2026-02-13T01:57:38.311Z,16.453565,120.590998,1360,13,40.0,1,34,0,305,Atok,Paoay,,cabbage,22.7,49,,samsung_SM-A546E_DF7DBC,field