uuid,spot_number,shot_number,shots_in_spot,image_filename,image_width,image_height,image_quality,capture_datetime,latitude,longitude,altitude_m,altitude_accuracy_m,gps_accuracy_m,gps_reading_count,camera_pitch,camera_roll,camera_heading,municipality,barangay,farm_name,crops,temperature_c,humidity_percent,notes,device_id,capture_mode
aeeed204,1,1,10,images/2026/01/21/latrinidad_balili_bsuback_20260121_003127_aeeed204.jpg,1080,1080,1080p,2026-01-21T00:31:27.435Z,16.453933,120.591581,1363,6,3.3,1,18,-8,4,La Trinidad,Balili,BSU Back,"cabbage,custom_chinese_cabbage",16.9,79,,TECNO_TECNO_CM8_5EAA20,field
a18676dc,1,2,10,images/2026/01/21/latrinidad_balili_bsuback_20260121_003130_a18676dc.jpg,1080,1080,1080p,2026-01-21T00:31:30.356Z,16.453933,120.591581,1363,6,3.3,1,18,1,355,La Trinidad,Balili,BSU Back,"cabbage,custom_chinese_cabbage",16.9,79,,TECNO_TECNO_CM8_5EAA20,field
f781136b,1,3,10,images/2026/01/21/latrinidad_balili_bsuback_20260121_003133_f781136b.jpg,1080,1080,1080p,2026-01-21T00:31:33.202Z,16.453933,120.591581,1363,6,3.3,1,18,26,346,La Trinidad,Balili,BSU Back,"cabbage,custom_chinese_cabbage",16.9,79,,TECNO_TECNO_CM8_5EAA20,field
7cfb041f,1,4,10,images/2026/01/21/latrinidad_balili_bsuback_20260121_003137_7cfb041f.jpg,1080,1080,1080p,2026-01-21T00:31:37.907Z,16.453933,120.591581,1363,6,3.3,1,38,33,331,La Trinidad,Balili,BSU Back,"cabbage,custom_chinese_cabbage",16.9,79,,TECNO_TECNO_CM8_5EAA20,field
db27f1eb,1,5,10,images/2026/01/21/latrinidad_balili_bsuback_20260121_003140_db27f1eb.jpg,1080,1080,1080p,2026-01-21T00:31:40.736Z,16.453933,120.591581,1363,6,3.3,1,46,32,342,La Trinidad,Balili,BSU Back,"cabbage,custom_chinese_cabbage",16.9,79,,TECNO_TECNO_CM8_5EAA20,field
96bf360c,1,6,10,images/2026/01/21/latrinidad_balili_bsuback_20260121_003144_96bf360c.jpg,1080,1080,1080p,2026-01-21T00:31:44.907Z,16.453933,120.591581,1363,6,3.3,1,39,-18,8,La Trinidad,Balili,BSU Back,"cabbage,custom_chinese_cabbage",16.9,79,,TECNO_TECNO_CM8_5EAA20,field
112ef8c4,1,7,10,images/2026/01/21/latrinidad_balili_bsuback_20260121_003149_112ef8c4.jpg,1080,1080,1080p,2026-01-21T00:31:49.926Z,16.453933,120.591581,1363,6,3.3,1,20,-43,325,La Trinidad,Balili,BSU Back,"cabbage,custom_chinese_cabbage",16.9,79,,TECNO_TECNO_CM8_5EAA20,field
1275bf50,1,8,10,images/2026/01/21/latrinidad_balili_bsuback_20260121_003200_1275bf50.jpg,1080,1080,1080p,2026-01-21T00:32:00.437Z,16.453933,120.591581,1363,6,3.3,1,43,11,99,La Trinidad,Balili,BSU Back,"cabbage,custom_chinese_cabbage",16.9,79,,TECNO_TECNO_CM8_5EAA20,field
7abe8ee7,1,9,10,images/2026/01/21/latrinidad_balili_bsuback_20260121_003203_7abe8ee7.jpg,1080,1080,1080p,2026-01-21T00:32:03.762Z,16.453933,120.591581,1363,6,3.3,1,20,51,72,La Trinidad,Balili,BSU Back,"cabbage,custom_chinese_cabbage",16.9,79,,TECNO_TECNO_CM8_5EAA20,field
fb7138ab,1,10,10,images/2026/01/21/latrinidad_balili_bsuback_20260121_003211_fb7138ab.jpg,1080,1080,1080p,2026-01-21T00:32:11.445Z,16.453933,120.591581,1363,6,3.3,1,15,-6,356,La Trinidad,Balili,BSU Back,"cabbage,custom_chinese_cabbage",16.9,79,,TECNO_TECNO_CM8_5EAA20,field
6c88ac7d,2,1,10,images/2026/01/21/latrinidad_balili_bsuback_20260121_003253_6c88ac7d.jpg,1080,1080,1080p,2026-01-21T00:32:53.239Z,16.453927,120.591525,1359,2,3.0,1,24,33,301,La Trinidad,Balili,BSU Back,"cabbage,custom_chinese_cabbage",16.9,79,,TECNO_TECNO_CM8_5EAA20,field
334240c9,2,2,10,images/2026/01/21/latrinidad_balili_bsuback_20260121_003256_334240c9.jpg,1080,1080,1080p,2026-01-21T00:32:56.622Z,16.453922,120.591506,1358,15,3.0,1,23,33,294,La Trinidad,Balili,BSU Back,"cabbage,custom_chinese_cabbage",16.9,79,,TECNO_TECNO_CM8_5EAA20,field
ab7d4593,2,3,10,images/2026/01/21/latrinidad_balili_bsuback_20260121_003300_ab7d4593.jpg,1080,1080,1080p,2026-01-21T00:33:00.045Z,16.453922,120.591506,1358,15,3.0,1,30,37,329,La Trinidad,Balili,BSU Back,"cabbage,custom_chinese_cabbage",16.9,79,,TECNO_TECNO_CM8_5EAA20,field
89dd44c7,2,4,10,images/2026/01/21/latrinidad_balili_bsuback_20260121_003304_89dd44c7.jpg,1080,1080,1080p,2026-01-21T00:33:04.403Z,16.453922,120.591506,1358,15,3.0,1,15,-46,3,La Trinidad,Balili,BSU Back,"cabbage,custom_chinese_cabbage",16.9,79,,TECNO_TECNO_CM8_5EAA20,field
7a20fcfe,2,5,10,images/2026/01/21/latrinidad_balili_bsuback_20260121_003309_7a20fcfe.jpg,1080,1080,1080p,2026-01-21T00:33:09.890Z,16.453922,120.591506,1358,15,3.0,1,12,52,110,La Trinidad,Balili,BSU Back,"cabbage,custom_chinese_cabbage",16.9,79,,TECNO_TECNO_CM8_5EAA20,field
2a6889bd,2,6,10,images/2026/01/21/latrinidad_balili_bsuback_20260121_003313_2a6889bd.jpg,1080,1080,1080p,2026-01-21T00:33:13.683Z,16.453922,120.591506,1358,15,3.0,1,16,-50,199,La Trinidad,Balili,BSU Back,"cabbage,custom_chinese_cabbage",16.9,79,,TECNO_TECNO_CM8_5EAA20,field
c169c15d,2,7,10,images/2026/01/21/latrinidad_balili_bsuback_20260121_003316_c169c15d.jpg,1080,1080,1080p,2026-01-21T00:33:16.708Z,16.453922,120.591506,1358,15,3.0,1,18,-41,200,La Trinidad,Balili,BSU Back,"cabbage,custom_chinese_cabbage",16.9,79,,TECNO_TECNO_CM8_5EAA20,field
14b7b2d2,2,8,10,images/2026/01/21/latrinidad_balili_bsuback_20260121_003320_14b7b2d2.jpg,1080,1080,1080p,2026-01-21T00:33:20.770Z,16.453922,120.591506,1358,15,3.0,1,16,51,166,La Trinidad,Balili,BSU Back,"cabbage,custom_chinese_cabbage",16.9,79,,TECNO_TECNO_CM8_5EAA20,field
8089d36b,2,9,10,images/2026/01/21/latrinidad_balili_bsuback_20260121_003324_8089d36b.jpg,1080,1080,1080p,2026-01-21T00:33:24.573Z,16.453922,120.591506,1358,15,3.0,1,48,1,159,La Trinidad,Balili,BSU Back,"cabbage,custom_chinese_cabbage",16.9,79,,TECNO_TECNO_CM8_5EAA20,field
f3a634a8,2,10,10,images/2026/01/21/latrinidad_balili_bsuback_20260121_003328_f3a634a8.jpg,1080,1080,1080p,2026-01-21T00:33:28.796Z,16.453922,120.591506,1358,15,3.0,1,33,2,177,La Trinidad,Balili,BSU Back,"cabbage,custom_chinese_cabbage",16.9,79,,TECNO_TECNO_CM8_5EAA20,field
55315d2c,4,1,10,images/2026/01/21/latrinidad_balili_bsuback_20260121_003629_55315d2c.jpg,1080,1080,1080p,2026-01-21T00:36:29.431Z,16.453982,120.591580,1358,8,3.2,1,18,-46,12,La Trinidad,Balili,BSU Back,"cabbage,custom_chinese_cabbage",16.9,79,,TECNO_TECNO_CM8_5EAA20,field
ee421acd,4,2,10,images/2026/01/21/latrinidad_balili_bsuback_20260121_003632_ee421acd.jpg,1080,1080,1080p,2026-01-21T00:36:32.033Z,16.453982,120.591580,1358,8,3.2,1,10,-45,19,La Trinidad,Balili,BSU Back,"cabbage,custom_chinese_cabbage",16.9,79,,TECNO_TECNO_CM8_5EAA20,field
281325cc,4,3,10,images/2026/01/21/latrinidad_balili_bsuback_20260121_003635_281325cc.jpg,1080,1080,1080p,2026-01-21T00:36:35.067Z,16.453970,120.591565,1358,8,3.0,1,6,-52,64,La Trinidad,Balili,BSU Back,"cabbage,custom_chinese_cabbage",16.9,79,,TECNO_TECNO_CM8_5EAA20,field
a267e8e4,4,4,10,images/2026/01/21/latrinidad_balili_bsuback_20260121_003642_a267e8e4.jpg,1080,1080,1080p,2026-01-21T00:36:42.426Z,16.453973,120.591587,1358,8,3.0,1,-3,-58,94,La Trinidad,Balili,BSU Back,"cabbage,custom_chinese_cabbage",16.9,79,,TECNO_TECNO_CM8_5EAA20,field
1cbd1b47,4,5,10,images/2026/01/21/latrinidad_balili_bsuback_20260121_003652_1cbd1b47.jpg,1080,1080,1080p,2026-01-21T00:36:52.449Z,16.453985,120.591603,1358,8,3.0,1,-3,-64,168,La Trinidad,Balili,BSU Back,"cabbage,custom_chinese_cabbage",16.9,79,,TECNO_TECNO_CM8_5EAA20,field
e1fd8742,4,6,10,images/2026/01/21/latrinidad_balili_bsuback_20260121_003655_e1fd8742.jpg,1080,1080,1080p,2026-01-21T00:36:55.349Z,16.453985,120.591603,1358,8,3.0,1,-4,-62,180,La Trinidad,Balili,BSU Back,"cabbage,custom_chinese_cabbage",16.9,79,,TECNO_TECNO_CM8_5EAA20,field
4c2520cf,4,7,10,images/2026/01/21/latrinidad_balili_bsuback_20260121_003658_4c2520cf.jpg,1080,1080,1080p,2026-01-21T00:36:58.394Z,16.453985,120.591603,1358,8,3.0,1,-3,-59,184,La Trinidad,Balili,BSU Back,"cabbage,custom_chinese_cabbage",16.9,79,,TECNO_TECNO_CM8_5EAA20,field
159c3310,4,8,10,images/2026/01/21/latrinidad_balili_bsuback_20260121_003702_159c3310.jpg,1080,1080,1080p,2026-01-21T00:37:02.237Z,16.453985,120.591603,1358,8,3.0,1,-2,-61,195,La Trinidad,Balili,BSU Back,"cabbage,custom_chinese_cabbage",16.9,79,,TECNO_TECNO_CM8_5EAA20,field
5b589b5c,4,9,10,images/2026/01/21/latrinidad_balili_bsuback_20260121_003705_5b589b5c.jpg,1080,1080,1080p,2026-01-21T00:37:05.648Z,16.453985,120.591603,1358,8,3.0,1,-1,-59,186,La Trinidad,Balili,BSU Back,"cabbage,custom_chinese_cabbage",16.9,79,,TECNO_TECNO_CM8_5EAA20,field
acc00303,4,10,10,images/2026/01/21/latrinidad_balili_bsuback_20260121_003708_acc00303.jpg,1080,1080,1080p,2026-01-21T00:37:08.459Z,16.453985,120.591603,1358,8,3.0,1,-1,-55,187,La Trinidad,Balili,BSU Back,"cabbage,custom_chinese_cabbage",16.9,79,,TECNO_TECNO_CM8_5EAA20,field
fe0d4ddb,7,1,10,images/2026/01/21/latrinidad_balili_bsuback_20260121_004256_fe0d4ddb.jpg,1080,1080,1080p,2026-01-21T00:42:56.726Z,16.453860,120.591508,1365,15,3.5,1,21,-41,165,La Trinidad,Balili,BSU Back,potato,18.0,71,,TECNO_TECNO_CM8_5EAA20,field
526d2fca,7,2,10,images/2026/01/21/latrinidad_balili_bsuback_20260121_004259_526d2fca.jpg,1080,1080,1080p,2026-01-21T00:42:59.596Z,16.453860,120.591508,1365,15,3.5,1,11,-48,190,La Trinidad,Balili,BSU Back,potato,18.0,71,,TECNO_TECNO_CM8_5EAA20,field
704ad8fd,7,3,10,images/2026/01/21/latrinidad_balili_bsuback_20260121_004302_704ad8fd.jpg,1080,1080,1080p,2026-01-21T00:43:02.282Z,16.453860,120.591508,1365,15,3.5,1,10,-47,189,La Trinidad,Balili,BSU Back,potato,18.0,71,,TECNO_TECNO_CM8_5EAA20,field
13418f60,7,4,10,images/2026/01/21/latrinidad_balili_bsuback_20260121_004305_13418f60.jpg,1080,1080,1080p,2026-01-21T00:43:05.906Z,16.453860,120.591508,1365,15,3.5,1,-5,-52,250,La Trinidad,Balili,BSU Back,potato,18.0,71,,TECNO_TECNO_CM8_5EAA20,field
235aad83,7,5,10,images/2026/01/21/latrinidad_balili_bsuback_20260121_004308_235aad83.jpg,1080,1080,1080p,2026-01-21T00:43:08.741Z,16.453860,120.591508,1365,15,3.5,1,-4,-49,220,La Trinidad,Balili,BSU Back,potato,18.0,71,,TECNO_TECNO_CM8_5EAA20,field
9e08a19a,7,6,10,images/2026/01/21/latrinidad_balili_bsuback_20260121_004318_9e08a19a.jpg,1080,1080,1080p,2026-01-21T00:43:18.280Z,16.453860,120.591508,1365,15,3.5,1,-2,-59,97,La Trinidad,Balili,BSU Back,potato,18.0,71,,TECNO_TECNO_CM8_5EAA20,field
40bd9f39,7,7,10,images/2026/01/21/latrinidad_balili_bsuback_20260121_004321_40bd9f39.jpg,1080,1080,1080p,2026-01-21T00:43:21.464Z,16.453860,120.591508,1365,15,3.5,1,2,-47,103,La Trinidad,Balili,BSU Back,potato,18.0,71,,TECNO_TECNO_CM8_5EAA20,field
730b76a9,7,8,10,images/2026/01/21/latrinidad_balili_bsuback_20260121_004326_730b76a9.jpg,1080,1080,1080p,2026-01-21T00:43:26.719Z,16.453860,120.591508,1365,15,3.5,1,2,-19,14,La Trinidad,Balili,BSU Back,potato,18.0,71,,TECNO_TECNO_CM8_5EAA20,field
663a63e2,7,9,10,images/2026/01/21/latrinidad_balili_bsuback_20260121_004329_663a63e2.jpg,1080,1080,1080p,2026-01-21T00:43:29.819Z,16.453860,120.591508,1365,15,3.5,1,3,-20,17,La Trinidad,Balili,BSU Back,potato,18.0,71,,TECNO_TECNO_CM8_5EAA20,field
888bf576,7,10,10,images/2026/01/21/latrinidad_balili_bsuback_20260121_004333_888bf576.jpg,1080,1080,1080p,2026-01-21T00:43:33.672Z,16.453860,120.591508,1365,15,3.5,1,7,-5,8,La Trinidad,Balili,BSU Back,potato,18.0,71,,TECNO_TECNO_CM8_5EAA20,field
9a63018a,8,1,10,images/2026/01/21/latrinidad_balili_bsuback_20260121_004639_9a63018a.jpg,1080,1080,1080p,2026-01-21T00:46:39.638Z,16.453808,120.591487,1363,4,1.5,1,37,12,327,La Trinidad,Balili,BSU Back,potato,18.0,71,,TECNO_TECNO_CM8_5EAA20,field
643f5477,8,2,10,images/2026/01/21/latrinidad_balili_bsuback_20260121_004642_643f5477.jpg,1080,1080,1080p,2026-01-21T00:46:42.675Z,16.453808,120.591487,1363,4,1.5,1,19,49,310,La Trinidad,Balili,BSU Back,potato,18.0,71,,TECNO_TECNO_CM8_5EAA20,field
80dc8c99,8,3,10,images/2026/01/21/latrinidad_balili_bsuback_20260121_004649_80dc8c99.jpg,1080,1080,1080p,2026-01-21T00:46:49.749Z,16.453808,120.591487,1363,4,1.5,1,26,-41,351,La Trinidad,Balili,BSU Back,potato,18.0,71,,TECNO_TECNO_CM8_5EAA20,field
908c8c89,8,4,10,images/2026/01/21/latrinidad_balili_bsuback_20260121_004700_908c8c89.jpg,1080,1080,1080p,2026-01-21T00:47:00.150Z,16.453808,120.591487,1363,4,1.5,1,-3,-50,253,La Trinidad,Balili,BSU Back,potato,18.0,71,,TECNO_TECNO_CM8_5EAA20,field
3ddfd0d0,8,5,10,images/2026/01/21/latrinidad_balili_bsuback_20260121_004703_3ddfd0d0.jpg,1080,1080,1080p,2026-01-21T00:47:03.560Z,16.453808,120.591487,1363,4,1.5,1,5,-27,238,La Trinidad,Balili,BSU Back,potato,18.0,71,,TECNO_TECNO_CM8_5EAA20,field
130f20c5,8,6,10,images/2026/01/21/latrinidad_balili_bsuback_20260121_004706_130f20c5.jpg,1080,1080,1080p,2026-01-21T00:47:06.744Z,16.453808,120.591487,1363,4,1.5,1,42,2,210,La Trinidad,Balili,BSU Back,potato,18.0,71,,TECNO_TECNO_CM8_5EAA20,field
d0fb74d2,8,7,10,images/2026/01/21/latrinidad_balili_bsuback_20260121_004710_d0fb74d2.jpg,1080,1080,1080p,2026-01-21T00:47:10.043Z,16.453808,120.591487,1363,4,1.5,1,-2,-20,243,La Trinidad,Balili,BSU Back,potato,18.0,71,,TECNO_TECNO_CM8_5EAA20,field
e896f4e9,8,8,10,images/2026/01/21/latrinidad_balili_bsuback_20260121_004729_e896f4e9.jpg,1080,1080,1080p,2026-01-21T00:47:29.690Z,16.453808,120.591487,1363,4,1.5,1,-7,-67,100,La Trinidad,Balili,BSU Back,potato,18.0,71,,TECNO_TECNO_CM8_5EAA20,field
6c7a7e79,8,9,10,images/2026/01/21/latrinidad_balili_bsuback_20260121_004737_6c7a7e79.jpg,1080,1080,1080p,2026-01-21T00:47:37.456Z,16.453808,120.591487,1363,4,1.5,1,7,-55,70,La Trinidad,Balili,BSU Back,potato,18.0,71,,TECNO_TECNO_CM8_5EAA20,field
60f88874,8,10,10,images/2026/01/21/latrinidad_balili_bsuback_20260121_004741_60f88874.jpg,1080,1080,1080p,2026-01-21T00:47:41.368Z,16.453808,120.591487,1363,4,1.5,1,30,-21,83,La Trinidad,Balili,BSU Back,potato,18.0,71,,TECNO_TECNO_CM8_5EAA20,field
86ec222d,9,1,10,images/2026/01/21/latrinidad_balili_bsuback_20260121_004831_86ec222d.jpg,1080,1080,1080p,2026-01-21T00:48:31.068Z,16.453718,120.591470,1363,21,1.5,1,1,-63,91,La Trinidad,Balili,BSU Back,potato,18.0,71,,TECNO_TECNO_CM8_5EAA20,field
dc8968d2,9,2,10,images/2026/01/21/latrinidad_balili_bsuback_20260121_004845_dc8968d2.jpg,1080,1080,1080p,2026-01-21T00:48:45.977Z,16.453718,120.591470,1363,21,1.5,1,-17,-53,231,La Trinidad,Balili,BSU Back,potato,18.0,71,,TECNO_TECNO_CM8_5EAA20,field
f1eb70fe,9,3,10,images/2026/01/21/latrinidad_balili_bsuback_20260121_004849_f1eb70fe.jpg,1080,1080,1080p,2026-01-21T00:48:49.695Z,16.453718,120.591470,1363,21,1.5,1,15,-37,197,La Trinidad,Balili,BSU Back,potato,18.0,71,,TECNO_TECNO_CM8_5EAA20,field
8c4f74e7,9,4,10,images/2026/01/21/latrinidad_balili_bsuback_20260121_004854_8c4f74e7.jpg,1080,1080,1080p,2026-01-21T00:48:54.571Z,16.453718,120.591470,1363,21,1.5,1,-1,-53,197,La Trinidad,Balili,BSU Back,potato,18.0,71,,TECNO_TECNO_CM8_5EAA20,field
0d20c4d1,9,5,10,images/2026/01/21/latrinidad_balili_bsuback_20260121_004858_0d20c4d1.jpg,1080,1080,1080p,2026-01-21T00:48:58.815Z,16.453718,120.591470,1363,21,1.5,1,14,-30,188,La Trinidad,Balili,BSU Back,potato,18.0,71,,TECNO_TECNO_CM8_5EAA20,field
f30c5579,9,6,10,images/2026/01/21/latrinidad_balili_bsuback_20260121_004902_f30c5579.jpg,1080,1080,1080p,2026-01-21T00:49:02.652Z,16.453718,120.591470,1363,21,1.5,1,32,-6,181,La Trinidad,Balili,BSU Back,potato,18.0,71,,TECNO_TECNO_CM8_5EAA20,field
1d21bac0,9,7,10,images/2026/01/21/latrinidad_balili_bsuback_20260121_004907_1d21bac0.jpg,1080,1080,1080p,2026-01-21T00:49:07.596Z,16.453718,120.591470,1363,21,1.5,1,8,-15,200,La Trinidad,Balili,BSU Back,potato,18.0,71,,TECNO_TECNO_CM8_5EAA20,field
232d4de4,9,8,10,images/2026/01/21/latrinidad_balili_bsuback_20260121_004911_232d4de4.jpg,1080,1080,1080p,2026-01-21T00:49:11.213Z,16.453718,120.591470,1363,21,1.5,1,-7,-47,230,La Trinidad,Balili,BSU Back,potato,18.0,71,,TECNO_TECNO_CM8_5EAA20,field
960122a6,9,9,10,images/2026/01/21/latrinidad_balili_bsuback_20260121_004915_960122a6.jpg,1080,1080,1080p,2026-01-21T00:49:15.702Z,16.453718,120.591470,1363,21,1.5,1,3,-9,170,La Trinidad,Balili,BSU Back,potato,18.0,71,,TECNO_TECNO_CM8_5EAA20,field
8c15db20,9,10,10,images/2026/01/21/latrinidad_balili_bsuback_20260121_004919_8c15db20.jpg,1080,1080,1080p,2026-01-21T00:49:19.752Z,16.453718,120.591470,1363,21,1.5,1,0,-8,180,La Trinidad,Balili,BSU Back,potato,18.0,71,,TECNO_TECNO_CM8_5EAA20,field
930f5c84,10,1,10,images/2026/01/21/latrinidad_balili_bsuback_20260121_005210_930f5c84.jpg,1080,1080,1080p,2026-01-21T00:52:10.726Z,16.453633,120.591582,1363,4,1.5,1,3,-51,218,La Trinidad,Balili,BSU Back,potato,18.5,67,,TECNO_TECNO_CM8_5EAA20,field
8f850494,10,2,10,images/2026/01/21/latrinidad_balili_bsuback_20260121_005214_8f850494.jpg,1080,1080,1080p,2026-01-21T00:52:14.522Z,16.453633,120.591582,1363,4,1.5,1,-2,-48,234,La Trinidad,Balili,BSU Back,potato,18.5,67,,TECNO_TECNO_CM8_5EAA20,field
0d441527,10,3,10,images/2026/01/21/latrinidad_balili_bsuback_20260121_005218_0d441527.jpg,1080,1080,1080p,2026-01-21T00:52:18.271Z,16.453633,120.591582,1363,4,1.5,1,-2,-46,226,La Trinidad,Balili,BSU Back,potato,18.5,67,,TECNO_TECNO_CM8_5EAA20,field
8bc7149b,10,4,10,images/2026/01/21/latrinidad_balili_bsuback_20260121_005222_8bc7149b.jpg,1080,1080,1080p,2026-01-21T00:52:22.408Z,16.453633,120.591582,1363,4,1.5,1,1,-1,216,La Trinidad,Balili,BSU Back,potato,18.5,67,,TECNO_TECNO_CM8_5EAA20,field
ff0fd30c,10,5,10,images/2026/01/21/latrinidad_balili_bsuback_20260121_005226_ff0fd30c.jpg,1080,1080,1080p,2026-01-21T00:52:26.410Z,16.453633,120.591582,1363,4,1.5,1,-3,-2,217,La Trinidad,Balili,BSU Back,potato,18.5,67,,TECNO_TECNO_CM8_5EAA20,field
195352ee,10,6,10,images/2026/01/21/latrinidad_balili_bsuback_20260121_005233_195352ee.jpg,1080,1080,1080p,2026-01-21T00:52:33.388Z,16.453633,120.591582,1363,4,1.5,1,53,-17,29,La Trinidad,Balili,BSU Back,potato,18.5,67,,TECNO_TECNO_CM8_5EAA20,field
4132f226,10,7,10,images/2026/01/21/latrinidad_balili_bsuback_20260121_005237_4132f226.jpg,1080,1080,1080p,2026-01-21T00:52:37.374Z,16.453633,120.591582,1363,4,1.5,1,56,-14,31,La Trinidad,Balili,BSU Back,potato,18.5,67,,TECNO_TECNO_CM8_5EAA20,field
189d3cdc,10,8,10,images/2026/01/21/latrinidad_balili_bsuback_20260121_005241_189d3cdc.jpg,1080,1080,1080p,2026-01-21T00:52:41.461Z,16.453633,120.591582,1363,4,1.5,1,4,-52,43,La Trinidad,Balili,BSU Back,potato,18.5,67,,TECNO_TECNO_CM8_5EAA20,field
bf49cef6,10,9,10,images/2026/01/21/latrinidad_balili_bsuback_20260121_005245_bf49cef6.jpg,1080,1080,1080p,2026-01-21T00:52:45.692Z,16.453633,120.591582,1363,4,1.5,1,6,-46,45,La Trinidad,Balili,BSU Back,potato,18.5,67,,TECNO_TECNO_CM8_5EAA20,field
1b863410,10,10,10,images/2026/01/21/latrinidad_balili_bsuback_20260121_005249_1b863410.jpg,1080,1080,1080p,2026-01-21T00:52:49.957Z,16.453633,120.591582,1363,4,1.5,1,5,-18,38,La Trinidad,Balili,BSU Back,potato,18.5,67,,TECNO_TECNO_CM8_5EAA20,field
32277658,12,1,10,images/2026/01/21/latrinidad_balili_bsuback_20260121_005442_32277658.jpg,1080,1080,1080p,2026-01-21T00:54:42.300Z,16.453633,120.591582,1363,4,1.5,1,5,-46,14,La Trinidad,Balili,BSU Back,"lettuce,custom_iceberg_lettuce",18.5,67,,TECNO_TECNO_CM8_5EAA20,field
1f64a960,12,2,10,images/2026/01/21/latrinidad_balili_bsuback_20260121_005446_1f64a960.jpg,1080,1080,1080p,2026-01-21T00:54:46.509Z,16.453633,120.591582,1363,4,1.5,1,8,-28,8,La Trinidad,Balili,BSU Back,"lettuce,custom_iceberg_lettuce",18.5,67,,TECNO_TECNO_CM8_5EAA20,field
b47b749a,12,3,10,images/2026/01/21/latrinidad_balili_bsuback_20260121_005450_b47b749a.jpg,1080,1080,1080p,2026-01-21T00:54:50.757Z,16.453633,120.591582,1363,4,1.5,1,36,-11,358,La Trinidad,Balili,BSU Back,"lettuce,custom_iceberg_lettuce",18.5,67,,TECNO_TECNO_CM8_5EAA20,field
d61aeed2,12,4,10,images/2026/01/21/latrinidad_balili_bsuback_20260121_005455_d61aeed2.jpg,1080,1080,1080p,2026-01-21T00:54:55.864Z,16.453633,120.591582,1363,4,1.5,1,55,-8,14,La Trinidad,Balili,BSU Back,"lettuce,custom_iceberg_lettuce",18.5,67,,TECNO_TECNO_CM8_5EAA20,field
0cec6d29,12,5,10,images/2026/01/21/latrinidad_balili_bsuback_20260121_005500_0cec6d29.jpg,1080,1080,1080p,2026-01-21T00:55:00.356Z,16.453633,120.591582,1363,4,1.5,1,0,-22,50,La Trinidad,Balili,BSU Back,"lettuce,custom_iceberg_lettuce",18.5,67,,TECNO_TECNO_CM8_5EAA20,field
36a132ed,12,6,10,images/2026/01/21/latrinidad_balili_bsuback_20260121_005506_36a132ed.jpg,1080,1080,1080p,2026-01-21T00:55:06.237Z,16.453633,120.591582,1363,4,1.5,1,-35,-4,5,La Trinidad,Balili,BSU Back,"lettuce,custom_iceberg_lettuce",18.5,67,,TECNO_TECNO_CM8_5EAA20,field
ca2288ec,12,7,10,images/2026/01/21/latrinidad_balili_bsuback_20260121_005511_ca2288ec.jpg,1080,1080,1080p,2026-01-21T00:55:11.782Z,16.453633,120.591582,1363,4,1.5,1,32,25,342,La Trinidad,Balili,BSU Back,"lettuce,custom_iceberg_lettuce",18.5,67,,TECNO_TECNO_CM8_5EAA20,field
8ac27d83,12,8,10,images/2026/01/21/latrinidad_balili_bsuback_20260121_005517_8ac27d83.jpg,1080,1080,1080p,2026-01-21T00:55:17.681Z,16.453633,120.591582,1363,4,1.5,1,-7,-48,203,La Trinidad,Balili,BSU Back,"lettuce,custom_iceberg_lettuce",18.5,67,,TECNO_TECNO_CM8_5EAA20,field
832a1dd7,12,9,10,images/2026/01/21/latrinidad_balili_bsuback_20260121_005522_832a1dd7.jpg,1080,1080,1080p,2026-01-21T00:55:22.307Z,16.453633,120.591582,1363,4,1.5,1,-4,-46,191,La Trinidad,Balili,BSU Back,"lettuce,custom_iceberg_lettuce",18.5,67,,TECNO_TECNO_CM8_5EAA20,field
d18a3fe1,12,10,10,images/2026/01/21/latrinidad_balili_bsuback_20260121_005527_d18a3fe1.jpg,1080,1080,1080p,2026-01-21T00:55:27.074Z,16.453633,120.591582,1363,4,1.5,1,1,-27,187,La Trinidad,Balili,BSU Back,"lettuce,custom_iceberg_lettuce",18.5,67,,TECNO_TECNO_CM8_5EAA20,field
a0df6fc8,15,1,10,images/2026/01/21/latrinidad_balili_bsuback_20260121_005859_a0df6fc8.jpg,1080,1080,1080p,2026-01-21T00:58:59.222Z,16.453567,120.591606,1363,12,2.5,1,29,-19,164,La Trinidad,Balili,BSU Back,"lettuce,custom_iceberg_lettuce",18.5,67,,TECNO_TECNO_CM8_5EAA20,field
a428ddaa,15,2,10,images/2026/01/21/latrinidad_balili_bsuback_20260121_005903_a428ddaa.jpg,1080,1080,1080p,2026-01-21T00:59:03.790Z,16.453567,120.591606,1363,12,2.5,1,18,-5,157,La Trinidad,Balili,BSU Back,"lettuce,custom_iceberg_lettuce",18.5,67,,TECNO_TECNO_CM8_5EAA20,field
b092d941,15,3,10,images/2026/01/21/latrinidad_balili_bsuback_20260121_005908_b092d941.jpg,1080,1080,1080p,2026-01-21T00:59:08.377Z,16.453567,120.591606,1363,12,2.5,1,20,40,124,La Trinidad,Balili,BSU Back,"lettuce,custom_iceberg_lettuce",18.5,67,,TECNO_TECNO_CM8_5EAA20,field
1a215050,15,4,10,images/2026/01/21/latrinidad_balili_bsuback_20260121_005912_1a215050.jpg,1080,1080,1080p,2026-01-21T00:59:12.912Z,16.453567,120.591606,1363,12,2.5,1,44,3,150,La Trinidad,Balili,BSU Back,"lettuce,custom_iceberg_lettuce",18.5,67,,TECNO_TECNO_CM8_5EAA20,field
beb3992c,15,5,10,images/2026/01/21/latrinidad_balili_bsuback_20260121_005919_beb3992c.jpg,1080,1080,1080p,2026-01-21T00:59:19.278Z,16.453554,120.591626,1360,12,3.0,1,46,0,6,La Trinidad,Balili,BSU Back,"lettuce,custom_iceberg_lettuce",18.5,67,,TECNO_TECNO_CM8_5EAA20,field
733400b4,15,6,10,images/2026/01/21/latrinidad_balili_bsuback_20260121_005924_733400b4.jpg,1080,1080,1080p,2026-01-21T00:59:24.393Z,16.453554,120.591626,1360,12,3.0,1,31,3,6,La Trinidad,Balili,BSU Back,"lettuce,custom_iceberg_lettuce",18.5,67,,TECNO_TECNO_CM8_5EAA20,field
3080111c,15,7,10,images/2026/01/21/latrinidad_balili_bsuback_20260121_005929_3080111c.jpg,1080,1080,1080p,2026-01-21T00:59:29.161Z,16.453554,120.591626,1360,12,3.0,1,15,9,345,La Trinidad,Balili,BSU Back,"lettuce,custom_iceberg_lettuce",18.5,67,,TECNO_TECNO_CM8_5EAA20,field
5caeb2ab,15,8,10,images/2026/01/21/latrinidad_balili_bsuback_20260121_005934_5caeb2ab.jpg,1080,1080,1080p,2026-01-21T00:59:34.153Z,16.453556,120.591649,1363,4,3.0,1,8,4,349,La Trinidad,Balili,BSU Back,"lettuce,custom_iceberg_lettuce",18.5,67,,TECNO_TECNO_CM8_5EAA20,field
42b024fb,15,9,10,images/2026/01/21/latrinidad_balili_bsuback_20260121_005940_42b024fb.jpg,1080,1080,1080p,2026-01-21T00:59:40.119Z,16.453556,120.591649,1363,4,3.0,1,29,14,1,La Trinidad,Balili,BSU Back,"lettuce,custom_iceberg_lettuce",18.5,67,,TECNO_TECNO_CM8_5EAA20,field
b053118b,15,10,10,images/2026/01/21/latrinidad_balili_bsuback_20260121_005951_b053118b.jpg,1080,1080,1080p,2026-01-21T00:59:51.308Z,16.453556,120.591649,1363,4,3.0,1,10,8,357,La Trinidad,Balili,BSU Back,"lettuce,custom_iceberg_lettuce",18.5,67,,TECNO_TECNO_CM8_5EAA20,field
3f430253,17,1,10,images/2026/01/21/latrinidad_balili_bsuback_20260121_010135_3f430253.jpg,1080,1080,1080p,2026-01-21T01:01:35.183Z,16.453598,120.591664,1358,7,3.0,1,32,-4,109,La Trinidad,Balili,BSU Back,"lettuce,custom_iceberg_lettuce",18.5,67,,TECNO_TECNO_CM8_5EAA20,field
f7e5d6f0,17,2,10,images/2026/01/21/latrinidad_balili_bsuback_20260121_010140_f7e5d6f0.jpg,1080,1080,1080p,2026-01-21T01:01:40.102Z,16.453598,120.591664,1358,7,3.0,1,30,18,91,La Trinidad,Balili,BSU Back,"lettuce,custom_iceberg_lettuce",18.5,67,,TECNO_TECNO_CM8_5EAA20,field
9665d8fe,17,3,10,images/2026/01/21/latrinidad_balili_bsuback_20260121_010145_9665d8fe.jpg,1080,1080,1080p,2026-01-21T01:01:45.019Z,16.453609,120.591639,1360,5,3.0,1,44,-3,101,La Trinidad,Balili,BSU Back,"lettuce,custom_iceberg_lettuce",18.5,67,,TECNO_TECNO_CM8_5EAA20,field
9fee8afb,17,4,10,images/2026/01/21/latrinidad_balili_bsuback_20260121_010152_9fee8afb.jpg,1080,1080,1080p,2026-01-21T01:01:52.018Z,16.453609,120.591639,1360,5,3.0,1,11,-6,337,La Trinidad,Balili,BSU Back,"lettuce,custom_iceberg_lettuce",18.5,67,,TECNO_TECNO_CM8_5EAA20,field
b375bf3f,17,5,10,images/2026/01/21/latrinidad_balili_bsuback_20260121_010159_b375bf3f.jpg,1080,1080,1080p,2026-01-21T01:01:59.718Z,16.453609,120.591639,1360,5,3.0,1,35,29,326,La Trinidad,Balili,BSU Back,"lettuce,custom_iceberg_lettuce",18.5,67,,TECNO_TECNO_CM8_5EAA20,field
8b604acf,17,6,10,images/2026/01/21/latrinidad_balili_bsuback_20260121_010204_8b604acf.jpg,1080,1080,1080p,2026-01-21T01:02:04.876Z,16.453609,120.591639,1360,5,3.0,1,33,20,345,La Trinidad,Balili,BSU Back,"lettuce,custom_iceberg_lettuce",18.5,67,,TECNO_TECNO_CM8_5EAA20,field
0b5538c5,17,7,10,images/2026/01/21/latrinidad_balili_bsuback_20260121_010210_0b5538c5.jpg,1080,1080,1080p,2026-01-21T01:02:10.333Z,16.453636,120.591719,1360,14,2.7,1,10,-2,337,La Trinidad,Balili,BSU Back,"lettuce,custom_iceberg_lettuce",18.5,67,,TECNO_TECNO_CM8_5EAA20,field
53dab6f2,17,8,10,images/2026/01/21/latrinidad_balili_bsuback_20260121_010215_53dab6f2.jpg,1080,1080,1080p,2026-01-21T01:02:15.565Z,16.453636,120.591719,1360,14,2.7,1,4,7,339,La Trinidad,Balili,BSU Back,"lettuce,custom_iceberg_lettuce",18.5,67,,TECNO_TECNO_CM8_5EAA20,field
2f98ac81,17,9,10,images/2026/01/21/latrinidad_balili_bsuback_20260121_010221_2f98ac81.jpg,1080,1080,1080p,2026-01-21T01:02:21.086Z,16.453636,120.591719,1360,14,2.7,1,4,9,341,La Trinidad,Balili,BSU Back,"lettuce,custom_iceberg_lettuce",18.5,67,,TECNO_TECNO_CM8_5EAA20,field
41c1951b,17,10,10,images/2026/01/21/latrinidad_balili_bsuback_20260121_010226_41c1951b.jpg,1080,1080,1080p,2026-01-21T01:02:26.617Z,16.453636,120.591719,1360,14,2.7,1,13,37,317,La Trinidad,Balili,BSU Back,"lettuce,custom_iceberg_lettuce",18.5,67,,TECNO_TECNO_CM8_5EAA20,field
54a4c933,19,1,10,images/2026/01/21/latrinidad_balili_bsuback_20260121_010650_54a4c933.jpg,1080,1080,1080p,2026-01-21T01:06:50.100Z,16.453670,120.591626,1358,2,4.1,1,42,4,339,La Trinidad,Balili,BSU Back,lettuce,18.5,67,,TECNO_TECNO_CM8_5EAA20,field
df1095d8,19,2,10,images/2026/01/21/latrinidad_balili_bsuback_20260121_010653_df1095d8.jpg,1080,1080,1080p,2026-01-21T01:06:53.873Z,16.453687,120.591637,1358,3,3.9,1,23,38,318,La Trinidad,Balili,BSU Back,lettuce,18.5,67,,TECNO_TECNO_CM8_5EAA20,field
768f84b5,19,3,10,images/2026/01/21/latrinidad_balili_bsuback_20260121_010658_768f84b5.jpg,1080,1080,1080p,2026-01-21T01:06:58.701Z,16.453705,120.591652,1358,10,4.1,1,23,-39,3,La Trinidad,Balili,BSU Back,lettuce,18.5,67,,TECNO_TECNO_CM8_5EAA20,field
2d9235c6,19,4,10,images/2026/01/21/latrinidad_balili_bsuback_20260121_010702_2d9235c6.jpg,1080,1080,1080p,2026-01-21T01:07:02.745Z,16.453718,120.591668,1358,10,4.5,1,14,4,342,La Trinidad,Balili,BSU Back,lettuce,18.5,67,,TECNO_TECNO_CM8_5EAA20,field
be35ca2c,19,5,10,images/2026/01/21/latrinidad_balili_bsuback_20260121_010705_be35ca2c.jpg,1080,1080,1080p,2026-01-21T01:07:05.341Z,16.453718,120.591668,1358,10,4.5,1,11,5,343,La Trinidad,Balili,BSU Back,lettuce,18.5,67,,TECNO_TECNO_CM8_5EAA20,field
608bbec2,19,6,10,images/2026/01/21/latrinidad_balili_bsuback_20260121_010713_608bbec2.jpg,1080,1080,1080p,2026-01-21T01:07:13.595Z,16.453718,120.591668,1358,10,4.5,1,-18,-35,233,La Trinidad,Balili,BSU Back,lettuce,18.5,67,,TECNO_TECNO_CM8_5EAA20,field
1a27b44f,19,7,10,images/2026/01/21/latrinidad_balili_bsuback_20260121_010717_1a27b44f.jpg,1080,1080,1080p,2026-01-21T01:07:17.659Z,16.453710,120.591687,1363,19,3.0,1,0,-31,271,La Trinidad,Balili,BSU Back,lettuce,18.5,67,,TECNO_TECNO_CM8_5EAA20,field
0df75e31,19,8,10,images/2026/01/21/latrinidad_balili_bsuback_20260121_010721_0df75e31.jpg,1080,1080,1080p,2026-01-21T01:07:21.784Z,16.453710,120.591687,1363,19,3.0,1,-4,-6,239,La Trinidad,Balili,BSU Back,lettuce,18.5,67,,TECNO_TECNO_CM8_5EAA20,field
b295f4dc,19,9,10,images/2026/01/21/latrinidad_balili_bsuback_20260121_010726_b295f4dc.jpg,1080,1080,1080p,2026-01-21T01:07:26.616Z,16.453710,120.591687,1363,19,3.0,1,2,-15,237,La Trinidad,Balili,BSU Back,lettuce,18.5,67,,TECNO_TECNO_CM8_5EAA20,field
313f1e0b,19,10,10,images/2026/01/21/latrinidad_balili_bsuback_20260121_010731_313f1e0b.jpg,1080,1080,1080p,2026-01-21T01:07:31.467Z,16.453710,120.591687,1363,19,3.0,1,4,-2,167,La Trinidad,Balili,BSU Back,lettuce,18.5,67,,TECNO_TECNO_CM8_5EAA20,field
6fd476b7,20,1,10,images/2026/01/21/latrinidad_balili_bsuback_20260121_011307_6fd476b7.jpg,1080,1080,1080p,2026-01-21T01:13:07.337Z,16.453779,120.591772,1358,42,3.4,1,34,0,263,La Trinidad,Balili,BSU Back,"lettuce,custom_iceberg_lettuce",18.5,67,,TECNO_TECNO_CM8_5EAA20,field
3c47cabf,20,2,10,images/2026/01/21/latrinidad_balili_bsuback_20260121_011310_3c47cabf.jpg,1080,1080,1080p,2026-01-21T01:13:10.587Z,16.453779,120.591772,1358,42,3.4,1,46,4,280,La Trinidad,Balili,BSU Back,"lettuce,custom_iceberg_lettuce",18.5,67,,TECNO_TECNO_CM8_5EAA20,field
807e97a8,20,3,10,images/2026/01/21/latrinidad_balili_bsuback_20260121_011313_807e97a8.jpg,1080,1080,1080p,2026-01-21T01:13:13.722Z,16.453779,120.591772,1358,42,3.4,1,16,-7,289,La Trinidad,Balili,BSU Back,"lettuce,custom_iceberg_lettuce",18.5,67,,TECNO_TECNO_CM8_5EAA20,field
4ad14889,20,4,10,images/2026/01/21/latrinidad_balili_bsuback_20260121_011319_4ad14889.jpg,1080,1080,1080p,2026-01-21T01:13:19.159Z,16.453779,120.591772,1358,42,3.4,1,37,22,245,La Trinidad,Balili,BSU Back,"lettuce,custom_iceberg_lettuce",18.5,67,,TECNO_TECNO_CM8_5EAA20,field
4095148a,20,5,10,images/2026/01/21/latrinidad_balili_bsuback_20260121_011322_4095148a.jpg,1080,1080,1080p,2026-01-21T01:13:22.875Z,16.453788,120.591756,1363,6,3.0,1,26,18,263,La Trinidad,Balili,BSU Back,"lettuce,custom_iceberg_lettuce",18.5,67,,TECNO_TECNO_CM8_5EAA20,field
e97c8cb4,20,6,10,images/2026/01/21/latrinidad_balili_bsuback_20260121_011327_e97c8cb4.jpg,1080,1080,1080p,2026-01-21T01:13:27.022Z,16.453788,120.591756,1363,6,3.0,1,1,8,287,La Trinidad,Balili,BSU Back,"lettuce,custom_iceberg_lettuce",18.5,67,,TECNO_TECNO_CM8_5EAA20,field
732a415b,20,7,10,images/2026/01/21/latrinidad_balili_bsuback_20260121_011329_732a415b.jpg,1080,1080,1080p,2026-01-21T01:13:29.689Z,16.453788,120.591756,1363,6,3.0,1,-2,4,290,La Trinidad,Balili,BSU Back,"lettuce,custom_iceberg_lettuce",18.5,67,,TECNO_TECNO_CM8_5EAA20,field
4a746d8f,20,8,10,images/2026/01/21/latrinidad_balili_bsuback_20260121_011333_4a746d8f.jpg,1080,1080,1080p,2026-01-21T01:13:33.263Z,16.453788,120.591756,1363,6,3.0,1,-9,15,282,La Trinidad,Balili,BSU Back,"lettuce,custom_iceberg_lettuce",18.5,67,,TECNO_TECNO_CM8_5EAA20,field
204455c3,20,9,10,images/2026/01/21/latrinidad_balili_bsuback_20260121_011336_204455c3.jpg,1080,1080,1080p,2026-01-21T01:13:36.483Z,16.453788,120.591756,1363,6,3.0,1,-13,-23,267,La Trinidad,Balili,BSU Back,"lettuce,custom_iceberg_lettuce",18.5,67,,TECNO_TECNO_CM8_5EAA20,field
a1ffc6f7,20,10,10,images/2026/01/21/latrinidad_balili_bsuback_20260121_011339_a1ffc6f7.jpg,1080,1080,1080p,2026-01-21T01:13:39.172Z,16.453788,120.591756,1363,6,3.0,1,-4,-5,277,La Trinidad,Balili,BSU Back,"lettuce,custom_iceberg_lettuce",18.5,67,,TECNO_TECNO_CM8_5EAA20,field
41477579,23,1,10,images/2026/01/21/latrinidad_balili_bsuback_20260121_011732_41477579.jpg,1080,1080,1080p,2026-01-21T01:17:32.673Z,16.453648,120.591802,1360,5,5.8,1,46,-5,25,La Trinidad,Balili,BSU Back,lettuce,18.5,67,,TECNO_TECNO_CM8_5EAA20,field
4f425290,23,2,10,images/2026/01/21/latrinidad_balili_bsuback_20260121_011736_4f425290.jpg,1080,1080,1080p,2026-01-21T01:17:36.970Z,16.453648,120.591802,1360,5,5.8,1,17,-52,53,La Trinidad,Balili,BSU Back,lettuce,18.5,67,,TECNO_TECNO_CM8_5EAA20,field
a3baa6ee,23,3,10,images/2026/01/21/latrinidad_balili_bsuback_20260121_011740_a3baa6ee.jpg,1080,1080,1080p,2026-01-21T01:17:40.238Z,16.453648,120.591802,1360,5,5.8,1,17,-45,51,La Trinidad,Balili,BSU Back,lettuce,18.5,67,,TECNO_TECNO_CM8_5EAA20,field
8fdeb51e,23,4,10,images/2026/01/21/latrinidad_balili_bsuback_20260121_011756_8fdeb51e.jpg,1080,1080,1080p,2026-01-21T01:17:56.186Z,16.453665,120.591813,1360,7,3.0,1,-3,-19,295,La Trinidad,Balili,BSU Back,lettuce,18.5,67,,TECNO_TECNO_CM8_5EAA20,field
306357ad,23,5,10,images/2026/01/21/latrinidad_balili_bsuback_20260121_011759_306357ad.jpg,1080,1080,1080p,2026-01-21T01:17:59.458Z,16.453665,120.591813,1360,7,3.0,1,-5,-8,311,La Trinidad,Balili,BSU Back,lettuce,18.5,67,,TECNO_TECNO_CM8_5EAA20,field
ce40c095,23,6,10,images/2026/01/21/latrinidad_balili_bsuback_20260121_011802_ce40c095.jpg,1080,1080,1080p,2026-01-21T01:18:02.659Z,16.453665,120.591813,1360,7,3.0,1,-15,-1,317,La Trinidad,Balili,BSU Back,lettuce,18.5,67,,TECNO_TECNO_CM8_5EAA20,field
fa05d776,23,7,10,images/2026/01/21/latrinidad_balili_bsuback_20260121_011805_fa05d776.jpg,1080,1080,1080p,2026-01-21T01:18:05.751Z,16.453665,120.591813,1360,7,3.0,1,-23,-2,316,La Trinidad,Balili,BSU Back,lettuce,18.5,67,,TECNO_TECNO_CM8_5EAA20,field
1fe2e18c,23,8,10,images/2026/01/21/latrinidad_balili_bsuback_20260121_011809_1fe2e18c.jpg,1080,1080,1080p,2026-01-21T01:18:09.181Z,16.453665,120.591813,1360,7,3.0,1,20,0,305,La Trinidad,Balili,BSU Back,lettuce,18.5,67,,TECNO_TECNO_CM8_5EAA20,field
e048720e,23,9,10,images/2026/01/21/latrinidad_balili_bsuback_20260121_011812_e048720e.jpg,1080,1080,1080p,2026-01-21T01:18:12.116Z,16.453665,120.591813,1360,7,3.0,1,31,8,295,La Trinidad,Balili,BSU Back,lettuce,18.5,67,,TECNO_TECNO_CM8_5EAA20,field
03273e6e,23,10,10,images/2026/01/21/latrinidad_balili_bsuback_20260121_011814_03273e6e.jpg,1080,1080,1080p,2026-01-21T01:18:14.991Z,16.453665,120.591813,1360,7,3.0,1,26,5,303,La Trinidad,Balili,BSU Back,lettuce,18.5,67,,TECNO_TECNO_CM8_5EAA20,field
0607de5c,25,1,10,images/2026/01/21/latrinidad_balili_bsuback_20260121_012435_0607de5c.jpg,1080,1080,1080p,2026-01-21T01:24:35.087Z,16.453659,120.591604,1363,8,29.8,1,38,0,286,La Trinidad,Balili,BSU Back,"lettuce,custom_iceberg_lettuce",18.6,66,,TECNO_TECNO_CM8_5EAA20,field
5842a69a,25,2,10,images/2026/01/21/latrinidad_balili_bsuback_20260121_012439_5842a69a.jpg,1080,1080,1080p,2026-01-21T01:24:39.158Z,16.453781,120.591792,1363,8,2.0,1,26,-7,285,La Trinidad,Balili,BSU Back,"lettuce,custom_iceberg_lettuce",18.6,66,,TECNO_TECNO_CM8_5EAA20,field
1f73aef2,25,3,10,images/2026/01/21/latrinidad_balili_bsuback_20260121_012442_1f73aef2.jpg,1080,1080,1080p,2026-01-21T01:24:43.000Z,16.453781,120.591792,1363,8,2.0,1,34,3,297,La Trinidad,Balili,BSU Back,"lettuce,custom_iceberg_lettuce",18.6,66,,TECNO_TECNO_CM8_5EAA20,field
43ab01e0,25,4,10,images/2026/01/21/latrinidad_balili_bsuback_20260121_012446_43ab01e0.jpg,1080,1080,1080p,2026-01-21T01:24:46.058Z,16.453799,120.591803,1363,8,2.0,1,34,6,299,La Trinidad,Balili,BSU Back,"lettuce,custom_iceberg_lettuce",18.6,66,,TECNO_TECNO_CM8_5EAA20,field
24192f9c,25,5,10,images/2026/01/21/latrinidad_balili_bsuback_20260121_012451_24192f9c.jpg,1080,1080,1080p,2026-01-21T01:24:51.779Z,16.453799,120.591803,1363,8,2.0,1,21,-37,239,La Trinidad,Balili,BSU Back,"lettuce,custom_iceberg_lettuce",18.6,66,,TECNO_TECNO_CM8_5EAA20,field
0b984dd8,25,6,10,images/2026/01/21/latrinidad_balili_bsuback_20260121_012454_0b984dd8.jpg,1080,1080,1080p,2026-01-21T01:24:54.751Z,16.453799,120.591803,1363,8,2.0,1,17,-39,226,La Trinidad,Balili,BSU Back,"lettuce,custom_iceberg_lettuce",18.6,66,,TECNO_TECNO_CM8_5EAA20,field
74b4d3e0,25,7,10,images/2026/01/21/latrinidad_balili_bsuback_20260121_012457_74b4d3e0.jpg,1080,1080,1080p,2026-01-21T01:24:57.618Z,16.453815,120.591814,1358,3,3.0,1,17,0,193,La Trinidad,Balili,BSU Back,"lettuce,custom_iceberg_lettuce",18.6,66,,TECNO_TECNO_CM8_5EAA20,field
d42bf993,25,8,10,images/2026/01/21/latrinidad_balili_bsuback_20260121_012500_d42bf993.jpg,1080,1080,1080p,2026-01-21T01:25:00.758Z,16.453815,120.591814,1358,3,3.0,1,14,0,194,La Trinidad,Balili,BSU Back,"lettuce,custom_iceberg_lettuce",18.6,66,,TECNO_TECNO_CM8_5EAA20,field
e3856127,25,9,10,images/2026/01/21/latrinidad_balili_bsuback_20260121_012505_e3856127.jpg,1080,1080,1080p,2026-01-21T01:25:05.440Z,16.453815,120.591814,1358,3,3.0,1,3,-23,145,La Trinidad,Balili,BSU Back,"lettuce,custom_iceberg_lettuce",18.6,66,,TECNO_TECNO_CM8_5EAA20,field
6fbad58d,25,10,10,images/2026/01/21/latrinidad_balili_bsuback_20260121_012508_6fbad58d.jpg,1080,1080,1080p,2026-01-21T01:25:08.809Z,16.453815,120.591814,1358,3,3.0,1,5,-3,134,La Trinidad,Balili,BSU Back,"lettuce,custom_iceberg_lettuce",18.6,66,,TECNO_TECNO_CM8_5EAA20,field
96608900,27,1,10,images/2026/01/21/latrinidad_balili_bsuback_20260121_013028_96608900.jpg,1080,1080,1080p,2026-01-21T01:30:28.751Z,16.453306,120.591652,1360,6,3.4,1,1,-40,217,La Trinidad,Balili,BSU Back,"lettuce,custom_iceberg_lettuce",18.6,66,,TECNO_TECNO_CM8_5EAA20,field
9584729f,27,2,10,images/2026/01/21/latrinidad_balili_bsuback_20260121_013032_9584729f.jpg,1080,1080,1080p,2026-01-21T01:30:32.188Z,16.453318,120.591633,1363,7,3.0,1,1,-40,179,La Trinidad,Balili,BSU Back,"lettuce,custom_iceberg_lettuce",18.6,66,,TECNO_TECNO_CM8_5EAA20,field
6bb55ff5,27,3,10,images/2026/01/21/latrinidad_balili_bsuback_20260121_013035_6bb55ff5.jpg,1080,1080,1080p,2026-01-21T01:30:35.465Z,16.453318,120.591633,1363,7,3.0,1,3,-38,157,La Trinidad,Balili,BSU Back,"lettuce,custom_iceberg_lettuce",18.6,66,,TECNO_TECNO_CM8_5EAA20,field
64e60a11,27,4,10,images/2026/01/21/latrinidad_balili_bsuback_20260121_013038_64e60a11.jpg,1080,1080,1080p,2026-01-21T01:30:38.949Z,16.453335,120.591625,1363,8,3.0,1,15,-6,144,La Trinidad,Balili,BSU Back,"lettuce,custom_iceberg_lettuce",18.6,66,,TECNO_TECNO_CM8_5EAA20,field
0a56ee5c,27,5,10,images/2026/01/21/latrinidad_balili_bsuback_20260121_013042_0a56ee5c.jpg,1080,1080,1080p,2026-01-21T01:30:42.413Z,16.453335,120.591625,1363,8,3.0,1,21,30,141,La Trinidad,Balili,BSU Back,"lettuce,custom_iceberg_lettuce",18.6,66,,TECNO_TECNO_CM8_5EAA20,field
ea19f7a7,27,6,10,images/2026/01/21/latrinidad_balili_bsuback_20260121_013045_ea19f7a7.jpg,1080,1080,1080p,2026-01-21T01:30:45.617Z,16.453335,120.591625,1363,8,3.0,1,6,-43,228,La Trinidad,Balili,BSU Back,"lettuce,custom_iceberg_lettuce",18.6,66,,TECNO_TECNO_CM8_5EAA20,field
932e1faa,27,7,10,images/2026/01/21/latrinidad_balili_bsuback_20260121_013055_932e1faa.jpg,1080,1080,1080p,2026-01-21T01:30:55.333Z,16.453335,120.591625,1363,8,3.0,1,30,-1,357,La Trinidad,Balili,BSU Back,"lettuce,custom_iceberg_lettuce",18.6,66,,TECNO_TECNO_CM8_5EAA20,field
7c0f618d,27,8,10,images/2026/01/21/latrinidad_balili_bsuback_20260121_013059_7c0f618d.jpg,1080,1080,1080p,2026-01-21T01:30:59.044Z,16.453335,120.591625,1363,8,3.0,1,21,-17,34,La Trinidad,Balili,BSU Back,"lettuce,custom_iceberg_lettuce",18.6,66,,TECNO_TECNO_CM8_5EAA20,field
789c8517,27,9,10,images/2026/01/21/latrinidad_balili_bsuback_20260121_013103_789c8517.jpg,1080,1080,1080p,2026-01-21T01:31:03.075Z,16.453335,120.591625,1363,8,3.0,1,-5,-10,59,La Trinidad,Balili,BSU Back,"lettuce,custom_iceberg_lettuce",18.6,66,,TECNO_TECNO_CM8_5EAA20,field
373cf437,27,10,10,images/2026/01/21/latrinidad_balili_bsuback_20260121_013108_373cf437.jpg,1080,1080,1080p,2026-01-21T01:31:08.787Z,16.453335,120.591625,1363,8,3.0,1,23,-41,41,La Trinidad,Balili,BSU Back,"lettuce,custom_iceberg_lettuce",18.6,66,,TECNO_TECNO_CM8_5EAA20,field
5f7e0b78,26,1,10,images/2026/01/21/latrinidad_balili_bsuback_20260121_013148_5f7e0b78.jpg,1080,1080,1080p,2026-01-21T01:31:48.201Z,16.453451,120.591663,1359,31,6.1,1,25,5,107,La Trinidad,Balili,BSU Back,"lettuce,custom_iceberg_lettuce",18.6,66,,TECNO_TECNO_CM8_5EAA20,field
555a2d71,26,2,10,images/2026/01/21/latrinidad_balili_bsuback_20260121_013152_555a2d71.jpg,1080,1080,1080p,2026-01-21T01:31:52.051Z,16.453451,120.591663,1359,31,6.1,1,5,38,87,La Trinidad,Balili,BSU Back,"lettuce,custom_iceberg_lettuce",18.6,66,,TECNO_TECNO_CM8_5EAA20,field
03e7af99,26,3,10,images/2026/01/21/latrinidad_balili_bsuback_20260121_013155_03e7af99.jpg,1080,1080,1080p,2026-01-21T01:31:55.583Z,16.453451,120.591663,1359,31,6.1,1,22,7,108,La Trinidad,Balili,BSU Back,"lettuce,custom_iceberg_lettuce",18.6,66,,TECNO_TECNO_CM8_5EAA20,field
bd0c1620,26,4,10,images/2026/01/21/latrinidad_balili_bsuback_20260121_013159_bd0c1620.jpg,1080,1080,1080p,2026-01-21T01:31:59.497Z,16.453451,120.591663,1359,31,6.1,1,0,5,93,La Trinidad,Balili,BSU Back,"lettuce,custom_iceberg_lettuce",18.6,66,,TECNO_TECNO_CM8_5EAA20,field
6a46f9d8,26,5,10,images/2026/01/21/latrinidad_balili_bsuback_20260121_013203_6a46f9d8.jpg,1080,1080,1080p,2026-01-21T01:32:03.265Z,16.453451,120.591663,1359,31,6.1,1,-1,5,92,La Trinidad,Balili,BSU Back,"lettuce,custom_iceberg_lettuce",18.6,66,,TECNO_TECNO_CM8_5EAA20,field
2bff3d18,26,6,10,images/2026/01/21/latrinidad_balili_bsuback_20260121_013210_2bff3d18.jpg,1080,1080,1080p,2026-01-21T01:32:10.675Z,16.453451,120.591663,1359,31,6.1,1,-10,-19,225,La Trinidad,Balili,BSU Back,"lettuce,custom_iceberg_lettuce",18.6,66,,TECNO_TECNO_CM8_5EAA20,field
f538e130,26,7,10,images/2026/01/21/latrinidad_balili_bsuback_20260121_013218_f538e130.jpg,1080,1080,1080p,2026-01-21T01:32:18.584Z,16.453451,120.591663,1359,31,6.1,1,-1,-66,208,La Trinidad,Balili,BSU Back,"lettuce,custom_iceberg_lettuce",18.6,66,,TECNO_TECNO_CM8_5EAA20,field
d7705bc9,26,8,10,images/2026/01/21/latrinidad_balili_bsuback_20260121_013222_d7705bc9.jpg,1080,1080,1080p,2026-01-21T01:32:22.953Z,16.453451,120.591663,1359,31,6.1,1,2,-29,185,La Trinidad,Balili,BSU Back,"lettuce,custom_iceberg_lettuce",18.6,66,,TECNO_TECNO_CM8_5EAA20,field
1198732d,26,9,10,images/2026/01/21/latrinidad_balili_bsuback_20260121_013227_1198732d.jpg,1080,1080,1080p,2026-01-21T01:32:27.897Z,16.453451,120.591663,1359,31,6.1,1,-1,-17,182,La Trinidad,Balili,BSU Back,"lettuce,custom_iceberg_lettuce",18.6,66,,TECNO_TECNO_CM8_5EAA20,field
adb4c544,26,10,10,images/2026/01/21/latrinidad_balili_bsuback_20260121_013242_adb4c544.jpg,1080,1080,1080p,2026-01-21T01:32:42.214Z,16.453451,120.591663,1359,31,6.1,1,11,-22,53,La Trinidad,Balili,BSU Back,"lettuce,custom_iceberg_lettuce",18.6,66,,TECNO_TECNO_CM8_5EAA20,field
57402b45,30,1,10,images/2026/01/21/latrinidad_balili_bsuback_20260121_013645_57402b45.jpg,1080,1080,1080p,2026-01-21T01:36:45.543Z,16.453246,120.591781,1358,9,2.5,1,22,-20,138,La Trinidad,Balili,BSU Back,"lettuce,custom_iceberg_lettuce",18.6,66,,TECNO_TECNO_CM8_5EAA20,field
d90c8b0e,30,2,10,images/2026/01/21/latrinidad_balili_bsuback_20260121_013652_d90c8b0e.jpg,1080,1080,1080p,2026-01-21T01:36:52.095Z,16.453246,120.591781,1358,9,2.5,1,38,4,132,La Trinidad,Balili,BSU Back,"lettuce,custom_iceberg_lettuce",18.6,66,,TECNO_TECNO_CM8_5EAA20,field
cd277635,30,3,10,images/2026/01/21/latrinidad_balili_bsuback_20260121_013656_cd277635.jpg,1080,1080,1080p,2026-01-21T01:36:56.066Z,16.453246,120.591781,1358,9,2.5,1,43,2,136,La Trinidad,Balili,BSU Back,"lettuce,custom_iceberg_lettuce",18.6,66,,TECNO_TECNO_CM8_5EAA20,field
4aa4de84,30,4,10,images/2026/01/21/latrinidad_balili_bsuback_20260121_013700_4aa4de84.jpg,1080,1080,1080p,2026-01-21T01:37:00.021Z,16.453246,120.591781,1358,9,2.5,1,14,-11,140,La Trinidad,Balili,BSU Back,"lettuce,custom_iceberg_lettuce",18.6,66,,TECNO_TECNO_CM8_5EAA20,field
d8ec644e,30,5,10,images/2026/01/21/latrinidad_balili_bsuback_20260121_013712_d8ec644e.jpg,1080,1080,1080p,2026-01-21T01:37:12.451Z,16.453246,120.591781,1358,9,2.5,1,22,-33,2,La Trinidad,Balili,BSU Back,"lettuce,custom_iceberg_lettuce",18.6,66,,TECNO_TECNO_CM8_5EAA20,field
565c0f5b,30,6,10,images/2026/01/21/latrinidad_balili_bsuback_20260121_013716_565c0f5b.jpg,1080,1080,1080p,2026-01-21T01:37:16.539Z,16.453246,120.591781,1358,9,2.5,1,36,9,283,La Trinidad,Balili,BSU Back,"lettuce,custom_iceberg_lettuce",18.6,66,,TECNO_TECNO_CM8_5EAA20,field
392f0f12,30,7,10,images/2026/01/21/latrinidad_balili_bsuback_20260121_013722_392f0f12.jpg,1080,1080,1080p,2026-01-21T01:37:22.130Z,16.453246,120.591781,1358,9,2.5,1,13,16,259,La Trinidad,Balili,BSU Back,"lettuce,custom_iceberg_lettuce",18.6,66,,TECNO_TECNO_CM8_5EAA20,field
9a40f441,30,8,10,images/2026/01/21/latrinidad_balili_bsuback_20260121_013726_9a40f441.jpg,1080,1080,1080p,2026-01-21T01:37:26.334Z,16.453246,120.591781,1358,9,2.5,1,37,16,289,La Trinidad,Balili,BSU Back,"lettuce,custom_iceberg_lettuce",18.6,66,,TECNO_TECNO_CM8_5EAA20,field
5808e58c,30,9,10,images/2026/01/21/latrinidad_balili_bsuback_20260121_013730_5808e58c.jpg,1080,1080,1080p,2026-01-21T01:37:30.582Z,16.453246,120.591781,1358,9,2.5,1,43,7,317,La Trinidad,Balili,BSU Back,"lettuce,custom_iceberg_lettuce",18.6,66,,TECNO_TECNO_CM8_5EAA20,field
1ef0eb53,30,10,10,images/2026/01/21/latrinidad_balili_bsuback_20260121_013735_1ef0eb53.jpg,1080,1080,1080p,2026-01-21T01:37:35.224Z,16.453246,120.591781,1358,9,2.5,1,11,7,259,La Trinidad,Balili,BSU Back,"lettuce,custom_iceberg_lettuce",18.6,66,,TECNO_TECNO_CM8_5EAA20,field
6886f40a,32,1,10,images/2026/01/21/latrinidad_balili_bsuback_20260121_014335_6886f40a.jpg,1080,1080,1080p,2026-01-21T01:43:35.079Z,16.453140,120.591504,1360,6,2.7,1,20,-9,147,La Trinidad,Balili,BSU Back,tomato,19.2,58,,TECNO_TECNO_CM8_5EAA20,field
8bbdf6ed,32,2,10,images/2026/01/21/latrinidad_balili_bsuback_20260121_014339_8bbdf6ed.jpg,1080,1080,1080p,2026-01-21T01:43:39.342Z,16.453140,120.591504,1360,6,2.7,1,21,0,142,La Trinidad,Balili,BSU Back,tomato,19.2,58,,TECNO_TECNO_CM8_5EAA20,field
6aebf3f6,32,3,10,images/2026/01/21/latrinidad_balili_bsuback_20260121_014343_6aebf3f6.jpg,1080,1080,1080p,2026-01-21T01:43:43.565Z,16.453140,120.591504,1360,6,2.7,1,20,25,132,La Trinidad,Balili,BSU Back,tomato,19.2,58,,TECNO_TECNO_CM8_5EAA20,field
c8d45e88,32,4,10,images/2026/01/21/latrinidad_balili_bsuback_20260121_014347_c8d45e88.jpg,1080,1080,1080p,2026-01-21T01:43:47.867Z,16.453140,120.591504,1360,6,2.7,1,18,-19,154,La Trinidad,Balili,BSU Back,tomato,19.2,58,,TECNO_TECNO_CM8_5EAA20,field
9d1c94a7,32,5,10,images/2026/01/21/latrinidad_balili_bsuback_20260121_014352_9d1c94a7.jpg,1080,1080,1080p,2026-01-21T01:43:52.560Z,16.453140,120.591504,1360,6,2.7,1,7,-7,156,La Trinidad,Balili,BSU Back,tomato,19.2,58,,TECNO_TECNO_CM8_5EAA20,field
251cc152,32,6,10,images/2026/01/21/latrinidad_balili_bsuback_20260121_014356_251cc152.jpg,1080,1080,1080p,2026-01-21T01:43:56.958Z,16.453140,120.591504,1360,6,2.7,1,40,15,138,La Trinidad,Balili,BSU Back,tomato,19.2,58,,TECNO_TECNO_CM8_5EAA20,field
520cf515,32,7,10,images/2026/01/21/latrinidad_balili_bsuback_20260121_014405_520cf515.jpg,1080,1080,1080p,2026-01-21T01:44:05.086Z,16.453140,120.591504,1360,6,2.7,1,44,-6,6,La Trinidad,Balili,BSU Back,tomato,19.2,58,,TECNO_TECNO_CM8_5EAA20,field
858364db,32,8,10,images/2026/01/21/latrinidad_balili_bsuback_20260121_014413_858364db.jpg,1080,1080,1080p,2026-01-21T01:44:13.389Z,16.453140,120.591504,1360,6,2.7,1,48,-3,8,La Trinidad,Balili,BSU Back,tomato,19.2,58,,TECNO_TECNO_CM8_5EAA20,field
38279b48,32,9,10,images/2026/01/21/latrinidad_balili_bsuback_20260121_014417_38279b48.jpg,1080,1080,1080p,2026-01-21T01:44:17.860Z,16.453140,120.591504,1360,6,2.7,1,41,-6,17,La Trinidad,Balili,BSU Back,tomato,19.2,58,,TECNO_TECNO_CM8_5EAA20,field
9b4158d3,32,10,10,images/2026/01/21/latrinidad_balili_bsuback_20260121_014422_9b4158d3.jpg,1080,1080,1080p,2026-01-21T01:44:22.745Z,16.453140,120.591504,1360,6,2.7,1,17,-2,3,La Trinidad,Balili,BSU Back,tomato,19.2,58,,TECNO_TECNO_CM8_5EAA20,field
800fbc4f,36,1,10,images/2026/01/21/latrinidad_balili_bsuback_20260121_014708_800fbc4f.jpg,1080,1080,1080p,2026-01-21T01:47:08.198Z,16.453152,120.591488,1358,19,1.9,1,27,-5,208,La Trinidad,Balili,BSU Back,tomato,19.2,58,,TECNO_TECNO_CM8_5EAA20,field
46e9c8eb,36,2,10,images/2026/01/21/latrinidad_balili_bsuback_20260121_014716_46e9c8eb.jpg,1080,1080,1080p,2026-01-21T01:47:16.399Z,16.453133,120.591465,1360,18,87.9,1,17,5,198,La Trinidad,Balili,BSU Back,tomato,19.2,58,,TECNO_TECNO_CM8_5EAA20,field
08700ab9,36,3,10,images/2026/01/21/latrinidad_balili_bsuback_20260121_014719_08700ab9.jpg,1080,1080,1080p,2026-01-21T01:47:19.670Z,16.453112,120.591463,1360,17,1.4,1,25,1,219,La Trinidad,Balili,BSU Back,tomato,19.2,58,,TECNO_TECNO_CM8_5EAA20,field
7c4f3b50,36,4,10,images/2026/01/21/latrinidad_balili_bsuback_20260121_014736_7c4f3b50.jpg,1080,1080,1080p,2026-01-21T01:47:36.901Z,16.453112,120.591463,1360,17,1.4,1,41,-5,15,La Trinidad,Balili,BSU Back,tomato,19.2,58,,TECNO_TECNO_CM8_5EAA20,field
be7b0e20,36,5,10,images/2026/01/21/latrinidad_balili_bsuback_20260121_014747_be7b0e20.jpg,1080,1080,1080p,2026-01-21T01:47:47.178Z,16.453112,120.591463,1360,17,1.4,1,2,0,3,La Trinidad,Balili,BSU Back,tomato,19.2,58,,TECNO_TECNO_CM8_5EAA20,field
045677f1,36,6,10,images/2026/01/21/latrinidad_balili_bsuback_20260121_014750_045677f1.jpg,1080,1080,1080p,2026-01-21T01:47:50.457Z,16.453112,120.591463,1360,17,1.4,1,3,4,6,La Trinidad,Balili,BSU Back,tomato,19.2,58,,TECNO_TECNO_CM8_5EAA20,field
6f01d3ff,36,7,10,images/2026/01/21/latrinidad_balili_bsuback_20260121_014754_6f01d3ff.jpg,1080,1080,1080p,2026-01-21T01:47:54.063Z,16.453112,120.591463,1360,17,1.4,1,22,-1,2,La Trinidad,Balili,BSU Back,tomato,19.2,58,,TECNO_TECNO_CM8_5EAA20,field
787bd111,36,8,10,images/2026/01/21/latrinidad_balili_bsuback_20260121_014757_787bd111.jpg,1080,1080,1080p,2026-01-21T01:47:57.561Z,16.453112,120.591463,1360,17,1.4,1,20,-10,356,La Trinidad,Balili,BSU Back,tomato,19.2,58,,TECNO_TECNO_CM8_5EAA20,field
58e6e7fb,36,9,10,images/2026/01/21/latrinidad_balili_bsuback_20260121_014800_58e6e7fb.jpg,1080,1080,1080p,2026-01-21T01:48:00.978Z,16.453112,120.591463,1360,17,1.4,1,37,-3,356,La Trinidad,Balili,BSU Back,tomato,19.2,58,,TECNO_TECNO_CM8_5EAA20,field
290c2bca,36,10,10,images/2026/01/21/latrinidad_balili_bsuback_20260121_014805_290c2bca.jpg,1080,1080,1080p,2026-01-21T01:48:05.528Z,16.453112,120.591463,1360,17,1.4,1,-4,-7,6,La Trinidad,Balili,BSU Back,tomato,19.2,58,,TECNO_TECNO_CM8_5EAA20,field
6289d8b3,38,1,10,images/2026/01/21/latrinidad_balili_bsuback_20260121_015155_6289d8b3.jpg,1080,1080,1080p,2026-01-21T01:51:55.084Z,16.453138,120.591389,1360,4,3.1,1,36,-2,314,La Trinidad,Balili,BSU Back,tomato,19.2,58,,TECNO_TECNO_CM8_5EAA20,field
9f3eea00,38,2,10,images/2026/01/21/latrinidad_balili_bsuback_20260121_015159_9f3eea00.jpg,1080,1080,1080p,2026-01-21T01:51:59.711Z,16.453138,120.591389,1360,4,3.1,1,28,11,282,La Trinidad,Balili,BSU Back,tomato,19.2,58,,TECNO_TECNO_CM8_5EAA20,field
11179e43,38,3,10,images/2026/01/21/latrinidad_balili_bsuback_20260121_015207_11179e43.jpg,1080,1080,1080p,2026-01-21T01:52:07.929Z,16.453138,120.591389,1360,4,3.1,1,23,-2,274,La Trinidad,Balili,BSU Back,tomato,19.2,58,,TECNO_TECNO_CM8_5EAA20,field
95e72b9f,38,4,10,images/2026/01/21/latrinidad_balili_bsuback_20260121_015211_95e72b9f.jpg,1080,1080,1080p,2026-01-21T01:52:11.826Z,16.453138,120.591389,1360,4,3.1,1,12,-1,275,La Trinidad,Balili,BSU Back,tomato,19.2,58,,TECNO_TECNO_CM8_5EAA20,field
64a7a504,38,5,10,images/2026/01/21/latrinidad_balili_bsuback_20260121_015214_64a7a504.jpg,1080,1080,1080p,2026-01-21T01:52:14.969Z,16.453138,120.591389,1360,4,3.1,1,11,0,275,La Trinidad,Balili,BSU Back,tomato,19.2,58,,TECNO_TECNO_CM8_5EAA20,field
9c18e217,38,6,10,images/2026/01/21/latrinidad_balili_bsuback_20260121_015220_9c18e217.jpg,1080,1080,1080p,2026-01-21T01:52:20.127Z,16.453138,120.591389,1360,4,3.1,1,35,7,282,La Trinidad,Balili,BSU Back,tomato,19.2,58,,TECNO_TECNO_CM8_5EAA20,field
ebee9060,38,7,10,images/2026/01/21/latrinidad_balili_bsuback_20260121_015225_ebee9060.jpg,1080,1080,1080p,2026-01-21T01:52:25.459Z,16.453138,120.591389,1360,4,3.1,1,30,10,303,La Trinidad,Balili,BSU Back,tomato,19.2,58,,TECNO_TECNO_CM8_5EAA20,field
8d9a1982,38,8,10,images/2026/01/21/latrinidad_balili_bsuback_20260121_015237_8d9a1982.jpg,1080,1080,1080p,2026-01-21T01:52:37.640Z,16.453138,120.591389,1360,4,3.1,1,34,-25,17,La Trinidad,Balili,BSU Back,tomato,19.2,58,,TECNO_TECNO_CM8_5EAA20,field
9c914079,38,9,10,images/2026/01/21/latrinidad_balili_bsuback_20260121_015243_9c914079.jpg,1080,1080,1080p,2026-01-21T01:52:43.289Z,16.453138,120.591389,1360,4,3.1,1,12,4,276,La Trinidad,Balili,BSU Back,tomato,19.2,58,,TECNO_TECNO_CM8_5EAA20,field
bbd1c9ad,38,10,10,images/2026/01/21/latrinidad_balili_bsuback_20260121_015300_bbd1c9ad.jpg,1080,1080,1080p,2026-01-21T01:53:00.981Z,16.453138,120.591389,1360,4,3.1,1,55,31,254,La Trinidad,Balili,BSU Back,tomato,19.2,58,,TECNO_TECNO_CM8_5EAA20,field
fd4978d6,39,1,10,images/2026/01/21/latrinidad_balili_bsuback_20260121_015315_fd4978d6.jpg,1080,1080,1080p,2026-01-21T01:53:15.273Z,16.453181,120.591375,1360,1,3.3,1,13,-4,2,La Trinidad,Balili,BSU Back,tomato,19.2,58,,TECNO_TECNO_CM8_5EAA20,field
b8b9a9cd,39,2,10,images/2026/01/21/latrinidad_balili_bsuback_20260121_015319_b8b9a9cd.jpg,1080,1080,1080p,2026-01-21T01:53:19.108Z,16.453181,120.591375,1360,1,3.3,1,37,1,3,La Trinidad,Balili,BSU Back,tomato,19.2,58,,TECNO_TECNO_CM8_5EAA20,field
719227c1,39,3,10,images/2026/01/21/latrinidad_balili_bsuback_20260121_015322_719227c1.jpg,1080,1080,1080p,2026-01-21T01:53:22.429Z,16.453181,120.591375,1360,1,3.3,1,4,-36,6,La Trinidad,Balili,BSU Back,tomato,19.2,58,,TECNO_TECNO_CM8_5EAA20,field
54a59d4e,39,4,10,images/2026/01/21/latrinidad_balili_bsuback_20260121_015329_54a59d4e.jpg,1080,1080,1080p,2026-01-21T01:53:29.741Z,16.453181,120.591375,1360,1,3.3,1,1,-40,8,La Trinidad,Balili,BSU Back,tomato,19.2,58,,TECNO_TECNO_CM8_5EAA20,field
272335a9,39,5,10,images/2026/01/21/latrinidad_balili_bsuback_20260121_015337_272335a9.jpg,1080,1080,1080p,2026-01-21T01:53:37.081Z,16.453181,120.591375,1360,1,3.3,1,9,-36,162,La Trinidad,Balili,BSU Back,tomato,19.2,58,,TECNO_TECNO_CM8_5EAA20,field
a50df653,39,6,10,images/2026/01/21/latrinidad_balili_bsuback_20260121_015340_a50df653.jpg,1080,1080,1080p,2026-01-21T01:53:40.703Z,16.453181,120.591375,1360,1,3.3,1,10,-10,161,La Trinidad,Balili,BSU Back,tomato,19.2,58,,TECNO_TECNO_CM8_5EAA20,field
c00dff87,39,7,10,images/2026/01/21/latrinidad_balili_bsuback_20260121_015343_c00dff87.jpg,1080,1080,1080p,2026-01-21T01:53:43.664Z,16.453181,120.591375,1360,1,3.3,1,10,-9,161,La Trinidad,Balili,BSU Back,tomato,19.2,58,,TECNO_TECNO_CM8_5EAA20,field
8bb7ec73,39,8,10,images/2026/01/21/latrinidad_balili_bsuback_20260121_015346_8bb7ec73.jpg,1080,1080,1080p,2026-01-21T01:53:46.616Z,16.453181,120.591375,1360,1,3.3,1,40,2,155,La Trinidad,Balili,BSU Back,tomato,19.2,58,,TECNO_TECNO_CM8_5EAA20,field
231ee316,39,9,10,images/2026/01/21/latrinidad_balili_bsuback_20260121_015350_231ee316.jpg,1080,1080,1080p,2026-01-21T01:53:51.000Z,16.453181,120.591375,1360,1,3.3,1,6,-5,166,La Trinidad,Balili,BSU Back,tomato,19.2,58,,TECNO_TECNO_CM8_5EAA20,field
57105dcf,39,10,10,images/2026/01/21/latrinidad_balili_bsuback_20260121_015354_57105dcf.jpg,1080,1080,1080p,2026-01-21T01:53:54.207Z,16.453181,120.591375,1360,1,3.3,1,4,-9,163,La Trinidad,Balili,BSU Back,tomato,19.2,58,,TECNO_TECNO_CM8_5EAA20,field
4ce44c5f,45,1,10,images/2026/01/21/latrinidad_balili_bsuback_20260121_020401_4ce44c5f.jpg,1080,1080,1080p,2026-01-21T02:04:01.777Z,16.452926,120.591405,1360,12,3.1,1,17,4,300,La Trinidad,Balili,BSU Back,corn,19.2,58,,TECNO_TECNO_CM8_5EAA20,field
8e92c8c6,45,2,10,images/2026/01/21/latrinidad_balili_bsuback_20260121_020405_8e92c8c6.jpg,1080,1080,1080p,2026-01-21T02:04:05.600Z,16.452926,120.591405,1360,12,3.1,1,17,31,290,La Trinidad,Balili,BSU Back,corn,19.2,58,,TECNO_TECNO_CM8_5EAA20,field
a6430c88,45,3,10,images/2026/01/21/latrinidad_balili_bsuback_20260121_020410_a6430c88.jpg,1080,1080,1080p,2026-01-21T02:04:10.020Z,16.452926,120.591405,1360,12,3.1,1,26,-13,305,La Trinidad,Balili,BSU Back,corn,19.2,58,,TECNO_TECNO_CM8_5EAA20,field
5ae8d331,45,4,10,images/2026/01/21/latrinidad_balili_bsuback_20260121_020416_5ae8d331.jpg,1080,1080,1080p,2026-01-21T02:04:17.014Z,16.452926,120.591405,1360,12,3.1,1,35,3,298,La Trinidad,Balili,BSU Back,corn,19.2,58,,TECNO_TECNO_CM8_5EAA20,field
4983b9da,45,5,10,images/2026/01/21/latrinidad_balili_bsuback_20260121_020420_4983b9da.jpg,1080,1080,1080p,2026-01-21T02:04:20.889Z,16.452926,120.591405,1360,12,3.1,1,18,29,290,La Trinidad,Balili,BSU Back,corn,19.2,58,,TECNO_TECNO_CM8_5EAA20,field
19c04bb1,45,6,10,images/2026/01/21/latrinidad_balili_bsuback_20260121_020426_19c04bb1.jpg,1080,1080,1080p,2026-01-21T02:04:26.436Z,16.452926,120.591405,1360,12,3.1,1,21,23,285,La Trinidad,Balili,BSU Back,corn,19.2,58,,TECNO_TECNO_CM8_5EAA20,field
27c9779f,45,7,10,images/2026/01/21/latrinidad_balili_bsuback_20260121_020431_27c9779f.jpg,1080,1080,1080p,2026-01-21T02:04:31.264Z,16.452926,120.591405,1360,12,3.1,1,24,8,297,La Trinidad,Balili,BSU Back,corn,19.2,58,,TECNO_TECNO_CM8_5EAA20,field
0478e7c3,45,8,10,images/2026/01/21/latrinidad_balili_bsuback_20260121_020456_0478e7c3.jpg,1080,1080,1080p,2026-01-21T02:04:56.908Z,16.452930,120.591439,1363,6,3.1,1,14,-21,300,La Trinidad,Balili,BSU Back,corn,19.2,58,,TECNO_TECNO_CM8_5EAA20,field
24646479,45,9,10,images/2026/01/21/latrinidad_balili_bsuback_20260121_020511_24646479.jpg,1080,1080,1080p,2026-01-21T02:05:11.392Z,16.452940,120.591440,1360,11,2.5,1,17,-6,121,La Trinidad,Balili,BSU Back,corn,19.2,58,,TECNO_TECNO_CM8_5EAA20,field
e1d93fa7,45,10,10,images/2026/01/21/latrinidad_balili_bsuback_20260121_020514_e1d93fa7.jpg,1080,1080,1080p,2026-01-21T02:05:14.231Z,16.452940,120.591440,1360,11,2.5,1,7,-9,110,La Trinidad,Balili,BSU Back,corn,19.2,58,,TECNO_TECNO_CM8_5EAA20,field
8c30cd15,47,1,10,images/2026/01/21/latrinidad_balili_bsuback_20260121_021010_8c30cd15.jpg,1080,1080,1080p,2026-01-21T02:10:10.366Z,16.452832,120.591396,1363,14,3.0,1,35,-1,247,La Trinidad,Balili,BSU Back,corn,19.2,58,,TECNO_TECNO_CM8_5EAA20,field
2a5a4bcf,47,2,10,images/2026/01/21/latrinidad_balili_bsuback_20260121_021014_2a5a4bcf.jpg,1080,1080,1080p,2026-01-21T02:10:14.180Z,16.452832,120.591396,1363,14,3.0,1,36,-2,250,La Trinidad,Balili,BSU Back,corn,19.2,58,,TECNO_TECNO_CM8_5EAA20,field
8985d55b,47,3,10,images/2026/01/21/latrinidad_balili_bsuback_20260121_021017_8985d55b.jpg,1080,1080,1080p,2026-01-21T02:10:17.906Z,16.452832,120.591396,1363,14,3.0,1,18,-37,260,La Trinidad,Balili,BSU Back,corn,19.2,58,,TECNO_TECNO_CM8_5EAA20,field
7ddafb98,47,4,10,images/2026/01/21/latrinidad_balili_bsuback_20260121_021022_7ddafb98.jpg,1080,1080,1080p,2026-01-21T02:10:22.402Z,16.452832,120.591396,1363,14,3.0,1,24,45,239,La Trinidad,Balili,BSU Back,corn,19.2,58,,TECNO_TECNO_CM8_5EAA20,field
764d3a86,47,5,10,images/2026/01/21/latrinidad_balili_bsuback_20260121_021026_764d3a86.jpg,1080,1080,1080p,2026-01-21T02:10:26.731Z,16.452832,120.591396,1363,14,3.0,1,42,4,247,La Trinidad,Balili,BSU Back,corn,19.2,58,,TECNO_TECNO_CM8_5EAA20,field
19143b68,47,6,10,images/2026/01/21/latrinidad_balili_bsuback_20260121_021030_19143b68.jpg,1080,1080,1080p,2026-01-21T02:10:30.488Z,16.452832,120.591396,1363,14,3.0,1,16,0,254,La Trinidad,Balili,BSU Back,corn,19.2,58,,TECNO_TECNO_CM8_5EAA20,field
3b9ec0df,47,7,10,images/2026/01/21/latrinidad_balili_bsuback_20260121_021034_3b9ec0df.jpg,1080,1080,1080p,2026-01-21T02:10:34.241Z,16.452832,120.591396,1363,14,3.0,1,66,0,247,La Trinidad,Balili,BSU Back,corn,19.2,58,,TECNO_TECNO_CM8_5EAA20,field
6ac6bc71,47,8,10,images/2026/01/21/latrinidad_balili_bsuback_20260121_021043_6ac6bc71.jpg,1080,1080,1080p,2026-01-21T02:10:43.887Z,16.452832,120.591396,1363,14,3.0,1,41,3,79,La Trinidad,Balili,BSU Back,corn,19.2,58,,TECNO_TECNO_CM8_5EAA20,field
1672af2b,47,9,10,images/2026/01/21/latrinidad_balili_bsuback_20260121_021046_1672af2b.jpg,1080,1080,1080p,2026-01-21T02:10:46.774Z,16.452832,120.591396,1363,14,3.0,1,34,8,83,La Trinidad,Balili,BSU Back,corn,19.2,58,,TECNO_TECNO_CM8_5EAA20,field
